id,name,address,latitude,longitude,review_count,rating,zipcode
NcHnZbq06y9llCt6ayf_Jw,Sweet Chick,"46-42 Vernon Blvd, Long Island City, NY 11101",40.74578,-73.95339,27,4.5,11101
q2VwOuFDRJyIUfUFy8HQzg,Suspenders,"108 Greenwich St, New York, NY 10006",40.7086033564233,-74.0135990828276,147,4.0,10006
0yMlU3xbdawYFXmjNc0dhw,The Harrow New York,"720 10th Ave, New York, NY 10019",40.76419,-73.99182,44,4.5,10019
8XHbZIKDQbXhyKIGiukVeQ,Boucherie - Park,"225 Park Ave S, New York, NY 10003",40.73715,-73.98789,112,4.5,10003
C-8mGN7lt5rIraO5n-15ug,The Smith,"956 2nd Ave, New York, NY 10022",40.755165,-73.967868,1960,4.0,10022
AlStrNBqyH6WB9QGMEtcTw,Quality Eats,"3 E 28th St, New York, NY 10016",40.7446,-73.98653,36,4.5,10016
sVG1whNWHhlbjP6p027YcA,Brindle Room,"277 E 10th St, New York, NY 10009",40.72829,-73.98271,874,4.0,10009
0EtZ1xhnXWp4-ysNVwItYA,Distilled,"211 W Broadway, New York, NY 10013",40.7189994,-74.0062975,662,4.0,10013
CwOAKJdX8AMz5iAoA-ZEuA,Uglyduckling,"166 Smith St, Brooklyn, NY 11201",40.686023,-73.991302,318,4.0,11201
8JDwcklaawqYprHg0c9aIA,The Brooklyn Tree,"188 Montrose Ave, Brooklyn, NY 11206",40.707244,-73.941839,88,4.5,11206
6MgQz0SEOYUih2N5JOa6rg,BH Kitchen & Bar,"20 E 49th St, New York, NY 10017",40.75724,-73.97665,34,4.5,10017
IOHaEgK1zDvUvB3SfKuGCw,Parker & Quinn,"64 W 39th St, New York, NY 10018",40.7526021925429,-73.9850091145378,1007,4.0,10018
bSdguSmgdkPBfmD0bPUYKg,Jane's Eatery,"215-05 Northern Blvd, Unit 2, Bayside, NY 11361",40.7608247224371,-73.7673823535442,18,4.5,11361
Xd_l7jtUAZZAAvK8-mI2Jw,The Smith,"1150 Broadway, New York, NY 10010",40.74424,-73.98878,538,4.0,10010
fEig4z0y_qCMRLvW7HRuqA,Harding's,"32 E 21st St, New York, NY 10010",40.73938,-73.98871,294,4.0,10010
D2qV8sDdHEFlHbVz7VSHRQ,Black Tap Craft Burgers & Beer,"529 Broome St, New York, NY 10013",40.723807,-74.004351,863,3.5,10013
IiIzeFqe4tJiHaAWyw7ddg,West End Bar & Grill,"813 8th Ave, New York, NY 10019",40.7616749263638,-73.9867399828033,284,4.0,10019
6hw4ibsutVoMl_RK0aAJ7Q,The Black Derby,"310 W 4th St, New York, NY 10014",40.737266,-74.00399,84,4.5,10014
FJepPR5CYRggxRwAjlqg6A,Bowery Road,"132 4th Ave, New York, NY 10003",40.7333427,-73.9901924,89,4.5,10003
fanlKZzN-fI9LywqQD6EHg,Broadstone Bar & Kitchen,"88 Broad St, New York, NY 10004",40.70411,-74.01186,126,4.0,10004
x7hsZRd_MyrUgAW91FM9qA,Benson's NYC,"181 Essex St, New York, NY 10002",40.7218302,-73.9866963,276,4.5,10002
yZs_A8r0qDz7Z5bR0C-aiQ,Black Tap Craft Burger & Beers,"136 W 55th St, New York, NY 10019",40.76357,-73.9796999,559,4.0,10019
MKMx5TAmzXfjgLdXgu6FVQ,South Brooklyn Foundry,"6909 3rd Ave, Brooklyn, NY 11209",40.63539,-74.02602,94,4.5,11209
ohLIPmzTysowInbte9XhMw,The Malt House,"9 Maiden Ln, New York, NY 10038",40.709659,-74.009262,312,4.0,10038
LHxZgTddXIp_S1sL3nNG9w,Park Avenue Tavern,"99 Park Ave, New York, NY 10016",40.7502730779747,-73.9786066681229,598,4.0,10016
PnGSE8JGbMZKtdHi9go7Kg,The Milling Room,"446 Columbus Ave, New York, NY 10024",40.7835485472543,-73.9744088718635,313,4.5,10024
uoT2_Wrt1noD6kZOID7tUg,Jane,"100 W Houston St, New York, NY 10012",40.72732,-74.00026,2846,4.0,10012
d-DQwNxs77Pah2ys0q7w1Q,American Cut Steakhouse,"363 Greenwich St, New York, NY 10013",40.71915,-74.00994,475,4.0,10013
CjSLDlOGzyHcJPwYXZQsWw,Clinton Hall,"230 E 51st St, New York, NY 10022",40.7558,-73.96905,16,4.0,10022
q11TljTQd33XCWlVoPyRqg,The Osprey,"60 Furman St, Brooklyn, NY 11201",40.70224,-73.99554,29,4.0,11201
KkAtVVjnMfb1vGlcpzmhgw,Sweet Brooklyn Bar And Grill,"608 Nostrand Ave, Brooklyn, NY 11216",40.6778662988215,-73.9500002190471,204,4.0,11216
eTR6nfHvQzvKX7Dcd6JrfA,District Social,"252 W 37th St, New York, NY 10018",40.7535743713379,-73.9914321899414,371,4.0,10018
Xu8H24NxJJxEE-9wGp_AMA,The Brazen Tavern,"356 W 44th St, New York, NY 10036",40.7593269348145,-73.9913101196289,205,4.0,10036
cCesIqo-LQt0cRlZAnrAZQ,Friedman's,"132 W 31st St, New York, NY 10001",40.748297,-73.990649,1683,4.0,10001
ssGhu4n3emZ9kEPVf371IQ,Cookshop,"156 10th Ave, New York, NY 10011",40.7454251,-74.0056084,1783,4.0,10011
Rc1lxc5lSKJYd162JHNMfQ,Bea,"403 W 43rd St, New York, NY 10036",40.7591968,-73.9923361,1735,4.0,10036
7lPqxohBRjnpJjvNjRQUoA,Sip Unwine,"1197 Flatbush Ave, Brooklyn, NY 11226",40.64101,-73.95592,63,4.5,11226
T_vLaKsuyJPDpsrSZuc7WA,Battello,"502 Washington Blvd, Jersey City, NJ 07310",40.7254501288668,-74.0325578867018,400,4.0,07310
unWoFZeSWa0DK1YMekO_Uw,Trademark Taste & Grind,"38 W 36th St, New York, NY 10018",40.7502555847168,-73.9854583740234,403,4.5,10018
18oBmQQPj_QopK4L7wwcsg,SaltBrick Tavern,"156 Tillary St, Brooklyn, NY 11201",40.6958,-73.98378,55,4.0,11201
KfGUOaZobIxU5zVzLdgvdA,Nickel & Diner,"1 Howard St, New York, NY 10013",40.7189312923323,-73.9994524691619,273,4.0,10013
YigI9naNis2hvBtlkXLTvQ,Ichabod's,"15 Irving Pl, New York, NY 10003",40.7348034779301,-73.9883648628205,515,4.0,10003
MHtbBc2np3sR7jiV9GphNg,Tribeca's Kitchen,"200 Church St, New York, NY 10013",40.7162705535921,-74.0072225927912,280,4.0,10013
MctQwL9Mp5X7DJk13VoERg,Westville Chelsea,"246 W 18th St, New York, NY 10011",40.7417526245117,-74.0000762939453,989,4.0,10011
oW25x1w-Zv6CmprrT_R4Hw,Craft Culture,"59-04 Myrtle Ave, Ridgewood, NY 11385",40.7004551589489,-73.8999652862549,27,4.5,11385
u5iwtmfzGCqGYCYOTzQrQA,Midwinter Kitchen,"327 2nd Ave, New York, NY 10003",40.73542,-73.98293,347,4.5,10003
w4cFJhUpjGXqqWBd3BbY4w,Freemans,"Freeman Aly, New York, NY 10002",40.721964,-73.992466,1832,4.0,10002
t-tx9YJhKHZrzIn4DKziuQ,983-Bushwick's Living Room,"983 Flushing Ave, Brooklyn, NY 11206",40.703087,-73.933403,337,4.0,11206
JXcYD52B4190gIh6_RSXCg,Lilly's Craft and Kitchen,"675 9th Ave, New York, NY 10036",40.76138,-73.99071,407,4.0,10036
xR2Yeb_Nh0MOAiUIaqaVOg,Tavern 157,"157-12 Northern Blvd, Flushing, NY 11354",40.7634836392041,-73.807817278102,223,4.5,11354
YA2VxHRtyHsHks4ZMQ4qjg,Juno,"1264 Myrtle Ave, Brooklyn, NY 11221",40.697769,-73.92675,107,4.0,11221
AVlPC5AQX_qQMEf02H-wug,Juniper,"112 Berry St, Brooklyn, NY 11211",40.718925,-73.959017,476,4.0,11211
qOp4T7UxfL6MgO41dN3Qlg,Whitman's,"406 E 9th St, New York, NY 10009",40.727942,-73.984469,583,4.0,10009
xt4sa64WOrpJvZBDPNPNYg,Jacob's Pickles,"509 Amsterdam Ave, New York, NY 10024",40.7866504411994,-73.9755284786224,2942,4.0,10024
yDKChr-KX1Q1TbxUjaQJ_g,The Spotted Dog,"1154 1st Ave, New York, NY 10065",40.7623521711694,-73.9597779041227,73,4.0,10065
b3x1ORxAm9Wr5108EEe6mA,Sister Jane NYC,"349 E 13th St, New York, NY 10003",40.73092,-73.98335,23,4.0,10003
FST41XVNfiBgJHkutII-3w,American Retro,"714 11th Ave, New York, NY 10019",40.76618,-73.99409,187,4.0,10019
zcPWqsiqaPpNh8nJXR4gpw,The Commodore,"366 Metropolitan Ave, Brooklyn, NY 11211",40.7138257110445,-73.9556050300598,479,4.0,11211
2A2DCuV8cuoUoT3Kt2XTcg,Minnie's,"29 Clinton St, New York, NY 10002",40.72045,-73.98448,72,4.5,10002
nV-LbnEV_2OwXvXRany1sg,Hungry Burrito,"811 Seneca Ave, Queens, NY 11385",40.7014612,-73.9051407,7,4.5,11385
xhlNNlVl3bXQQfv8agYVnw,The Douglass Public House,"149 4th Ave, Brooklyn, NY 11217",40.67929,-73.98137,82,4.5,11217
JEuIdK9hzci9g_TuwfnZ_w,Society Cafe,"52 W 13th St, New York, NY 10011",40.73624,-73.99658,72,4.5,10011
9kCcNKe7z9GZFU3NhkoExA,Julia's,"818 Woodward Ave, Ridgewood, NY 11385",40.7032166,-73.9031296,157,4.5,11385
Oq1mej1BYfjcdPKkM_5o8g,High Street On Hudson,"637 Hudson St, New York, NY 10014",40.73888,-74.00574,297,4.0,10014
YvSCXoj-z1eS2soiXQSIFQ,49 Monroe,"49 Monroe St, New York, NY 10002",40.7118467,-73.9937348,124,4.5,10002
GxMhN2PEttvw7CRGIzB6Gg,Baron's,"564 Dekalb Ave, Brooklyn, NY 11205",40.6908116,-73.953915,162,4.5,11205
uq5rHbGtBFwCwPkokIkKvQ,JoJo,"160 E 64th St, New York, NY 10065",40.76506,-73.96571,22,4.5,10065
M2wnfA4K3DVwuAv0DCPTdQ,Covina,"127 E 27th St, New York, NY 10016",40.7423054,-73.9832149,244,4.5,10016
z5hRX3iJ5Ty_S38iG_WY3Q,Tanner Smiths,"204 W 55th St, New York, NY 10019",40.76428,-73.98172,1065,4.5,10019
y1192qiuwi3m0tqdt1Dh7g,Sugar Momma,"15 Cliff St, New York, NY 10038",40.70837,-74.00563,18,5.0,10038
c1kKAH9XMPNeaBhvnIP0FQ,Trinity Place,"115 Broadway, New York, NY 10006",40.708865,-74.01117,289,4.0,10006
ZQ-dG0tuqniCmfJ2mptRpQ,Blue Ribbon Federal Grill,"84 William St, New York, NY 10038",40.70798,-74.00772,56,4.0,10038
92m23CB9r9XrPFK7_7-SmQ,Flip'n Toss,"82 Christopher St, New York, NY 10014",40.73334,-74.00362,70,4.5,10014
lUQR6cZlHHKXOksH5xOTqA,Joe Allen,"326 W 46th St, New York, NY 10036",40.76005,-73.98913,320,4.0,10036
3gqKLANaXNsHZnPDjKrcTg,Win Son,"159 Graham Ave, Brooklyn, NY 11206",40.70747,-73.94339,231,4.5,11206
rHynORg95YCMq6OC_hCZfQ,Annicka,"544 Manhattan Av, Brooklyn, NY 11222",40.722026,-73.94929,14,4.0,11222
Me4TxTbPPQZQopW1wOGx5g,Jack's Wife Freda,"224 Lafayette St, New York, NY 10012",40.72213,-73.99756,1495,4.0,10012
51_f1MyuRFpEIpzb57YmEA,Hendriks,"557 3rd Ave, New York, NY 10016",40.747395,-73.97649,304,4.0,10016
6Guo-aozyLnQFtAuP8ZXZg,Queens Comfort,"3618 30th Ave, Astoria, NY 11103",40.764518,-73.916909,1798,4.0,11103
5F6DpNFFkc_ebdo2_u2wdg,Esther & Carol,"341 Broome St, New York, NY 10013",40.71958,-73.99484,59,4.5,10013
e9uJNCM3yXBaWQluZovqUA,Bonnie's Grill,"278 5th Ave, Brooklyn, NY 11215",40.674302,-73.982406,660,4.0,11215
rU9cKxAVU4Gd_JhAqp_bTA,Buttermilk Channel,"524 Court St, Brooklyn, NY 11231",40.675919,-73.999059,1664,4.0,11231
DyPK6IyY-8xIqQWT4HqJNw,Gristmill,"289 5th Ave, Brooklyn, NY 11215",40.6736889031443,-73.9824806441803,177,4.0,11215
W0sXHSSpkiMEDJiBmSLNYQ,Trestle,"34-02 Broadway, Astoria, NY 11106",40.7606154,-73.9229562,181,4.0,11106
QNYqjEyw9xEYRzzQ0OLCSA,Gus' American Grill,"7206 New Utrecht Ave, Brooklyn, NY 11228",40.618106842041,-73.9996185302734,53,4.5,11228
mXLrVoEi80WZaZ3agBP5Jw,Bijan's,"81 Hoyt St, Brooklyn, NY 11211",40.68803,-73.98671,387,4.0,11211
7Bb_IDWV_zJqpBjAvxuBIA,Cooper's Craft & Kitchen,"87 2nd Ave, New York, NY 10003",40.72704,-73.9892,384,4.0,10003
bMc_vEplFI56k1Jng1-dsg,Bellwether,"47-25 Vernon Blvd, Long island City, NY 11101",40.74482,-73.95304,17,4.0,11101
LJTGRkX5yWoqx1jJ7E4zqw,Haymaker Bar and Kitchen,"252 W 29th St, New York, NY 10001",40.7487508496393,-73.995229748466,233,4.0,10001
MfbVI5reXLIIs8Cc2HwgQw,Breakroom,"83 Baxter St, New York, NY 10013",40.7166907225542,-73.9999440120647,1330,4.5,10013
8wMJdpw2R_4VfS55itB_gQ,Sweetwater Restaurant,"105 N 6th St, Brooklyn, NY 11249",40.7184736,-73.9600178,303,4.0,11249
hOuETUkoGbMDyA4w9fmdmg,Craft House,"60 Vanduzer St, Tompkinsville, NY 10301",40.636373,-74.077543,265,4.5,10301
obBh14Cy3hp0AbriMPefzg,Rider,"80 N 6th St, Brooklyn, NY 11249",40.71887,-73.96136,114,4.5,11249
OOoua3Q6PfqtImv3DjdcWw,Parlay,"4024 8th Ave, Sunset Park, NY 11232",40.6463394,-73.998497,276,4.5,11232
DOdamkEm9JWR9s6VH_NuOQ,Mayfield,"688 Franklin Ave, Brooklyn, NY 11238",40.6748580932617,-73.9565734863281,458,4.0,11238
AawLwOYZwMf_9wkShExfuw,Sanfords,"30-13 Broadway, Astoria, NY 11106",40.762339,-73.925568,550,4.0,11106
Kgf2O5qRqSpPv8E346J8jQ,Prospect Bar & Grill,"545 5th Ave, Brooklyn, NY 11215",40.665832,-73.988916,128,4.0,11215
TMzgYJWl-DeKaA3kGcuK8A,The Eddy,"342 E 6th St, New York, NY 10003",40.7264594,-73.986646,327,4.5,10003
TDyu1-6XF7r1jc13j7nDNA,TØRST,"615 Manhattan Ave, Brooklyn, NY 11222",40.7233949,-73.950856,346,4.5,11222
PdIuSRfPXlXYYf0aNq95ZQ,Barley,"1025 Manhattan Ave, Brooklyn, NY 11222",40.7339699601062,-73.9551601186395,44,4.0,11222
nKjEA5nW5zm2MjD2ukdTtQ,Grindhaus,"275 Van Brunt St, New York, NY 11231",40.679115,-74.010459,81,4.5,11231
Hv5v8y3fvu6PjPiFf4jPVQ,Trading Post,"170 John St, New York, NY 10038",40.7059604,-74.0041871,294,4.0,10038
u-MUL83NUy2gsbV80WZnAA,The Marshal,"628 10th Ave, New York, NY 10036",40.76122,-73.99396,629,4.0,10036
3idAtiEXe_XfTcPoZC_DcQ,Westville - East,"173 Ave A, New York, NY 10009",40.72847,-73.98213,956,4.0,10009
W9jvfWo198fX_kmYptnh1g,Lighthouse Outpost,"241 Mulberry St, New York, NY 10012",40.72289,-73.99617,14,5.0,10012
PY-v9ObQWyS1Oiz89IUfEw,Skinflints,"7902 5th Ave, Brooklyn, NY 11209",40.6264899,-74.02404,254,4.0,11209
jmT8ep8WIXEPOwugYPeviw,Hudson's At Pier 81,"Pier 81 At 41st St, New York, NY 10036",40.761987469612,-74.00363016008,105,4.0,10036
TaAICUBApAfQG0ATDyspJQ,9ten Restaurant,"910 7th Ave, New York, NY 10019",40.7661399841309,-73.97998046875,134,4.0,10019
uYLIo8FCr9Ug5SFORDdsPA,The Burgary,"67 Clinton St, New York, NY 10002",40.7193370804105,-73.9850228946549,160,4.5,10002
ndRkgrkoCugt2qy0LMVQ_Q,Walter Foods,"253 Grand St, Brooklyn, NY 11211",40.713588,-73.958488,473,4.0,11211
K4Sar79zkmMdw1y3W5Jjdw,Brooklyn Steak Co,"1316 Ave M, Brooklyn, NY 11230",40.6176816477505,-73.9612351312828,34,4.5,11230
mhr7JHHBlptUxU7pjif5lA,Rose Water Restaurant,"787 Union St, Brooklyn, NY 11215",40.67565,-73.97813,583,4.0,11215
sGIlOSvwW_x8-in8QmRwXA,Little Forno,"276 Bay Ridge Ave, Brooklyn, NY 11220",40.6356982,-74.0264421,40,4.5,11220
64olT1goXFQEATQO_oiSLg,The Gray Mare,"61 2nd Ave, New York, NY 10003",40.726043,-73.989936,39,4.5,10003
DRitJoNGTkHXZvH_YpLIAw,Marc Forgione,"134 Reade St, New York, NY 10013",40.71647,-74.0095599,819,4.0,10013
5xI0Z0nqbaR-0FnPzg6VZg,Crescent Grill,"38-40 Crescent St, Long Island City, NY 11101",40.7549308,-73.9367746,248,4.5,11101
mVN2G1c5bRtAsNlr2Tbx6Q,White Oak Tavern,"21 Waverly Pl, New York, NY 10003",40.730364,-73.99462,243,4.0,10003
ZgU1Jmw9Itx_bEveDXtiFA,Jackson's Eatery | Bar,"10-37 Jackson Ave, Long Island City, NY 11101",40.74241,-73.95323,129,4.0,11101
iigqtLntqUS18cXmEXofIQ,The Lowery Bar & Kitchen,"43-02 43rd Ave, Sunnyside, NY 11104",40.7451454550028,-73.9208489656448,161,4.5,11104
fVbUVAiLiGgLA_nxBFxyww,Thursday Kitchen,"424 E 9th St, New York, NY 10009",40.7275,-73.9838,829,4.5,10009
tx-BDr8CU-GL9BKmp5r3TQ,The Burger Bistro,"7217 3rd Ave, Brooklyn, NY 11209",40.633028,-74.026858,690,4.0,11209
ePqKbqXFBCbwBaWiN2Jo9w,Ampersand,"294 3rd Ave, New York, NY 10010",40.7386178790617,-73.9834206895483,149,4.5,10010
ihplCj2HKWR7z-bBKf8Nzw,POST,"42 Ave B, New York, NY 10009",40.722976,-73.983016,135,4.5,10009
4il02WBqO7fZi2-A9Gk0dw,Gnarly Eats,"447 7th Ave, Brooklyn, NY 11215",40.663201,-73.984806,132,4.5,11215
veku2cg2qaV-7MxwhOMBmg,Judge Roy Bean Public House,"38 W 56th St, New York, NY 10019",40.7629158108786,-73.9761248066812,507,4.5,10019
U5hCNNyJmb7f3dmC1HTzSQ,Junior's Cheesecake,"1515 Broadway, New York, NY 10036",40.7582662685627,-73.9866533416119,3416,4.0,10036
qYuWyqWH5zfKJfJ6obuh4g,Eastfield's Kitchen & Bar,"1479 York Ave, New York, NY 10075",40.7709264508638,-73.950938590508,131,4.0,10075
RemvTpxalDjSew5HwmNzUQ,The Dead Rabbit,"30 Water St, New York, NY 10004",40.70329,-74.01102,1230,4.0,10004
T1r3CMfoIDQf56FRZsU31w,Brooklyn Lantern,"77 Box St, Brooklyn, NY 11222",40.7376268131285,-73.953510137326,4,4.0,11222
qMHzIYzoHYe55I7L65iEQw,Foragers Table,"233 8th Ave, New York, NY 10011",40.744541,-73.9990926,448,4.0,10011
qcMpRNrnS6gggYv28dgm_A,Belle Reve,"305 Church St, New York, NY 10013",40.71951,-74.00413,110,4.0,10013
3GP-tY5GWuOsiYRsycm7Lg,White Star Warren,"179 Warren St, Jersey City, NJ 07302",40.71318,-74.03998,250,4.0,07302
vr_edPWXo8qB8pirE9iUlQ,Skinner's Loft,"146 Newark Ave, Jersey City, NJ 07302",40.7206199,-74.04376,846,4.0,07302
np98mkA22LYf6kCwCL59pw,Rabbithole Restaurant,"352 Bedford Ave, Brooklyn, NY 11211",40.7122932799856,-73.9628687873483,675,4.0,11211
ZgpmuOHlmuvXO7uwLtkkFw,The Regal,"163 Hope St, Brooklyn, NY 11211",40.71179,-73.9517,290,4.0,11211
F-AfJgFrxNbn49Mp4l7aXg,Hollow Nickel,"494 Atlantic Ave, Brooklyn, NY 11217",40.685512,-73.981986,185,4.0,11217
W83Dpm-rKABQ3rnfIq_xwQ,Hello Bklyn,"234 Union Ave, Williamsburg, NY 11211",40.707473897527,-73.9503831043839,210,4.0,11211
2N0rmZr3YVSa_sZYTJHxIA,Imani Caribbean Kitchen & Bar,"271 Adelphi St, Brooklyn, NY 11205",40.689413,-73.970866,5,4.5,11205
V_6vz43QxigVJS-afdbtoQ,Union Bar & Kitchen,"300 Spring St, New York, NY 10013",40.72572,-74.00798,262,4.0,10013
iZeAlmKKvxnPu5oUKN-B3Q,Sweet Chick,"341 Flatbush Ave, Brooklyn, NY 11217",40.67763,-73.97255,235,4.0,11217
3n96VKiKG5Tte8z-U-TaLg,SoleLuna Restaurant,"40-01 Queens Blvd, Sunnyside, NY 11104",40.7441699,-73.92388,283,4.5,11104
Hp1ZDTeJOP1NrY2aFtROgQ,Woodbines,"47-10 Vernon Blvd, Long Island City, NY 11101",40.745216,-73.95357,259,4.0,11101
hu2bo4hZueedSKBimTAqOw,Humboldt and Jackson,"434 Humboldt St, Williamsburg, NY 11211",40.7166749128013,-73.9431685939692,93,4.5,11211
-SM_BQ5jiqvot_kl7RKoaQ,Zack's Oak Bar & Restaurant,"232 Willow Ave, Hoboken, NJ 07030",40.73979,-74.034071,306,4.0,07030
veq1Bl1DW3UWMekZJUsG1Q,Gramercy Tavern,"42 E 20th St, New York, NY 10003",40.738527,-73.988417,2463,4.5,10003
7qtIemPU3LlNix8CVWdhwA,Clancey,"79 Clinton St, New York, NY 10002",40.7190299,-73.98521,94,4.5,10002
j10m0W_qwZ4QoIqYcUMKNg,Foley's NY,"18 W 33rd St, New York, NY 10001",40.7481499,-73.9865189,220,4.0,10001
OiSjFh06dsNonI0cPXMSOw,Bondurants,"303 E 85th St, New York, NY 10028",40.777292,-73.951854,424,4.0,10028
P7yE1T1TDFIiYgLdEYR3Gw,Bill's Townhouse,"57 E 54th St, New York, NY 10022",40.7602615356445,-73.9729461669922,71,4.5,10022
hmdm-dO72hLsMQwQRcGEUQ,Atrium Dumbo,"15 Main St, Brooklyn, NY 11201",40.7033988833427,-73.9906159043312,504,4.0,11201
toxwdOCz37bX5dJ_O1h2Ew,Sugarcane Raw Bar Grill,"55 Water St, Brooklyn, NY 11201",40.7033991,-73.9914091,136,4.0,11201
lcI9kOcRqxxMhM4b5pHqsg,Dawa's,"51-18 Skillman Ave, Woodside, NY 11377",40.7456869,-73.9126859,157,4.5,11377
2tY5YZJvcIHWZZzC1wQUMg,Bisou Bisou,"264 Carlton Ave, Brooklyn, NY 11205",40.6898958381239,-73.9722776709226,51,4.5,11205
yoPMDATGXh_8NR7I0SW1gw,Manhattan Proper,"6 Murray St, New York, NY 10007",40.713341940631,-74.0080507346,238,4.0,10007
IJMjzCc5gPJo_40cRRspLg,Butcher Bar,"146 Orchard St, New York, NY 10002",40.72053,-73.98874,330,4.0,10002
f-WkzzSaAA_mdDmsKlJ4sw,21 Greenpoint,"21 Greenpoint Ave, Brooklyn, NY 11222",40.72978,-73.95992,65,4.0,11222
txSykTj5nbwmpiVNoK_Dyg,Blue Ribbon Brasserie - SoHo,"97 Sullivan St, New York, NY 10012",40.725456,-74.003027,839,4.5,10012
WoAvunLY0_L0ix8Vgit8gQ,The Tuck Room,"11 Fulton St, New York, NY 10038",40.70654,-74.00325,151,4.0,10038
eHcQP7EGKoPPSHDNm1oQaA,Fine Food Cuisine,"671 Morris Park Ave, East Bronx, NY 10462",40.8452169501183,-73.8671973748679,38,4.5,10462
ktvhcL-VzaZRxkqm3rAXEA,Brooklyn Label,"180 Franklin St, Brooklyn, NY 11222",40.73149,-73.95771,20,4.5,11222
GaTbudQQaA-STf3qn5Gj3w,Honey Badger,"67 Fenimore St, Brooklyn, NY 11225",40.6581695900809,-73.9600509604498,46,4.0,11225
mHBhUxHgDGjsB1LJl4qW0w,Hillstone Restaurant,"153 E 53rd St, New York, NY 10022",40.7582412110122,-73.9688767764436,953,4.0,10022
MNNpsRXe7Wt5m3Jla9Wk0w,The Alcove,"41-11 49th St, Sunnyside, NY 11104",40.7459065,-73.915103,424,5.0,11104
Phi_yESeDQJduuMDdwX4ZA,Slane,"384 3rd Ave, New York, NY 10016",40.74184,-73.9814,414,4.0,10016
XO3yD87rTPz9o6Dy9qRaJg,The Spaniard,"190 W 4th St, New York, NY 10014",40.7324927,-74.0020135,128,4.0,10014
Li52Rr6BM4bGNYdpn7H8_w,Cooper's Craft & Kitchen,"169 8th Ave, New York, NY 10011",40.742702,-74.000778,312,4.0,10011
Orbsfc3nI21mQ8cwSPahhg,The Four Horsemen,"295 Grand St, Williamsburg, NY 11211",40.7131386,-73.9572525,126,4.5,11211
xkvv0n7jbl4Ra3Vm_jfxaA,Upland,"345 Park Ave S, New York, NY 10010",40.7417865091611,-73.9847700297832,737,4.0,10010
xI0H0K1MAq1U6NTp1xFreA,Midnights,"149 N 6th St, Brooklyn, NY 11249",40.71748,-73.95843,158,4.5,11249
nm5rcWNmfevNXLNQAITi5w,Clinton Hall,"90 Washington St, New York, NY 10006",40.70803,-74.014869,425,4.0,10006
ybAfKElsgVcm60sS-39zyA,Clark's Restaurant,"80 Clark St, Brooklyn, NY 11201",40.69740294105,-73.993250079407,354,3.5,11201
PHfaEuOYj2KCNbDyZtjEhQ,Dickey's Barbecue Pit,"196A Flatbush Ave, Brooklyn, NY 11217",40.68166,-73.97593,14,4.0,11217
LbhYkhIOG5Vq-q9PbLcNnA,Onieals,"343 Park Ave, Hoboken, NJ 07030",40.7416,-74.03224,296,4.0,07030
fOhgitD0K_uetj9GbedonA,Linen Hall,"101 3rd Ave, New York, NY 10003",40.7323193887187,-73.9876905276754,146,4.0,10003
l_hBcWIFx_ausYBxLkSglQ,Oliver's Astoria,"3719 Broadway, Astoria, NY 11103",40.7595239,-73.9198044,398,4.0,11103
EuRT4si-_ZZq3in3kmqgOA,Hudson Bar Room,"444 10th Ave, New York, NY 10001",40.75499,-73.99843,7,4.5,10001
350F7vZ8gWh3ojxEWbxA3Q,The Distillery,"785 9th Ave, New York, NY 10019",40.76509,-73.98818,60,4.0,10019
nw5_0jb_u2a6nUt4Je09Xg,Casa Del Chef,"39-06 64th St, Woodside, NY 11377",40.7461139,-73.9001368,181,4.5,11377
SaYTVG7wHCMDBofHCgXPaA,Dutch Freds,"307 W 47th St, New York, NY 10036",40.76082,-73.98785,725,4.5,10036
JXsHJfBAKZT0fG8XkA9Kzw,Sweet Science,"135 Graham Ave, Brooklyn, NY 11206",40.7063841819763,-73.9431119710207,444,3.5,11206
I9ScToNzfcM8mS8GpG8sTg,Burger Inc Nyc,"353 W 14th St, New York, NY 10014",40.740851,-74.004695,51,4.5,10014
WDCA17TmVOAMWgMLHc2E6Q,Bo's Kitchen & Bar Room,"6 W 24th St, New York, NY 10010",40.7426259948421,-73.9902863558197,297,4.0,10010
GpWXEpVyehmKP2WQsD_Y8g,OTB,"141 Broadway, Williamsburg, Brooklyn, NY 11211",40.710506439209,-73.9633941650391,100,4.0,11211
57joDNvKR4nd05PqNcgzKA,Emoji Burger,"80-07 37th Ave, Jackson Heights, NY 11372",40.7496944,-73.8860056,146,4.0,11372
VCqNjupCWZ5INzOcyBMJSg,The Grey Dog - Union Square,"90 University Pl, New York, NY 10003",40.733828,-73.993052,908,4.0,10003
A3CHNoXgaqan_tddJTxmgw,Reclamation Bar,"817 Metropolitan Ave, Brooklyn, NY 11211",40.714896,-73.941587,63,4.0,11211
D1jp3pfGvyYyaXBN8iJRBg,The Farm On Adderley,"1108 Cortelyou Rd, Brooklyn, NY 11218",40.63965,-73.96754,1040,4.0,11218
2Vk5fhAmg5UwFnuihPSjPw,Pop's Diner,"44-29 Kissena Blvd, Flushing, NY 11355",40.7531739751242,-73.8216662406921,233,4.0,11355
4PeBRQZgHMW80J5YIaT39A,The Loyal,"289 Bleecker St, New York, NY 10014",40.7321627859791,-74.0033025943349,72,4.0,10014
4LoroCI3VtQ17dyQa75-Rg,The Warren,"131 Christopher St, New York, NY 10014",40.7331,-74.0067,164,4.0,10014
S1dsXbNk1NRy71eIhm1TmA,Sunshine,"780 Washington Ave, Brooklyn, NY 11238",40.6746035,-73.9631644,274,4.0,11238
9W-iYE7L_xHk6AY5wTUjkw,Murphy's Tavern,"6 Stone St, New York, NY 10004",40.70399,-74.0125,144,4.0,10004
3rgdWZzPpcxeAMU7PXgoKw,Surf,"37 Navy Pier Ct, Staten Island, NY 10304",40.6295568794633,-74.07334201916,89,4.0,10304
OxDQEp4dxrMJxe6KxfNO2A,New York Grill,"6516 Myrtle Ave, Glendale, NY 11385",40.700975,-73.889595,76,4.0,11385
eV_lsSEAjRWAxdlX44Omcw,Quaint,"46-10 Skillman Ave, Sunnyside, NY 11104",40.74626,-73.91761,227,4.0,11104
k5NAz3-goMXKoUqPfOZ1Hw,The Smith,"55 3rd Ave, New York, NY 10003",40.7310675,-73.9886217,1747,3.5,10003
ywAq9nvr9jX1S7-_HjA5ng,Ferris,"44 W 29th St, New York, NY 10001",40.74631,-73.98948,62,4.0,10001
1LIptXhtDh58vAA-QPFL4w,Cask Bar & Kitchen,"167 E 33rd St, New York, NY 10016",40.745414,-73.979004,1200,4.0,10016
38YuedP0ItlKbC-ncJ1XCQ,Tavern on Jane,"31 8th Ave, New York, NY 10014",40.73822,-74.00426,368,4.0,10014
Vs5yyxnkokrVkP0q8UOtAw,Petra Bar & Restaurant,"523 Evergreen Ave, Brooklyn, NY 11221",40.69042,-73.91548,17,5.0,11221
dsTAUtR3bRMFIKJpAJk1Jw,The Sparrow Tavern,"24-01 29th St, Astoria, NY 11102",40.772731,-73.916496,523,4.0,11102
y1-P_AM4DFX0pHUMwxK1NA,Offside Tavern,"137 W 14th St, New York, NY 10011",40.73832,-73.99836,47,4.5,10011
kWyz_wmazyLRWd3MqWlvqQ,Rattle and Hum,"14 E 33rd St, New York, NY 10016",40.747236,-73.984278,661,4.0,10016
UF9F0A4e7AJHzNPG5zrHUQ,The Beast Next Door,"42-51 27th St, Long Island City, NY 11101",40.748821,-73.940719,135,4.5,11101
1raNn0l3I4H9PcAJce69Sw,Sojourn,"244 E 79th St, New York, NY 10075",40.77343,-73.95568,511,4.0,10075
63nYipWuA42RZmESBMUNkQ,The Bluebell Cafe,"293 3rd Ave, New York, NY 10010",40.73845,-73.98321,530,4.0,10010
0laCKZiHrdM_ZKdhTFbGgg,Sauce & Barrel,"97 Washington St, New York, NY 10006",40.707999,-74.0142651,187,4.0,10006
xefmiLAsKURFc6FDGSRgfQ,Westville - Wall St,"110 Wall St, New York, NY 10005",40.70478,-74.00652,71,4.0,10005
ZLiN64ge9szKqg-9N6mQjA,Blvd Diner,"43-11 Queens Blvd, Sunnyside, NY 11104",40.74382,-73.92086,15,4.5,11104
I8U2B8O3uXhhXYhRrOH_Xg,The OX Tavern,"1301 Newkirk Ave, Brooklyn, NY 11230",40.63489,-73.9649699,456,4.0,11230
fZ8RiMqZsTKqfr4RoSLBOQ,the OAK on Pine,"196 Pine St, Jersey City, NJ 07304",40.71015,-74.06142,39,4.5,07304
7NFnAxUjfiYg8QrGsjMJKw,Amused,"142 W 83rd St, New York, NY 10024",40.7850341796875,-73.9754409790039,30,4.0,10024
Ps0cOZevNA1M9M5_z7W3oQ,Joseph Leonard,"170 Waverly Pl, New York, NY 10014",40.7336021670705,-74.001675412843,595,4.0,10014
pM9_afJOT623MmH_18t6SQ,Underhill Cafe And Grill,"760 Dean St, Brooklyn, NY 11238",40.67942,-73.96554,14,4.5,11238
Ulr_Nyp2nvt82EPH_BiftA,Olmsted,"659 Vanderbilt Ave, Brooklyn, NY 11238",40.67713,-73.96869,205,4.0,11238
T-ciFE0hc6O2JDY8Y1cDgg,Foxy Johns Bar & Kitchen,"143 E 47th St, New York, NY 10017",40.75445,-73.97274,208,4.0,10017
zXCGF0XtqjOv1s4DUHOtqg,Hart's Restaurant,"506 Franklin Ave, Brooklyn, NY 11238",40.68146,-73.95589,54,4.5,11238
YTthTM3FZIbQKmnnYzM_Nw,The Counting Room,"44 Berry St, Brooklyn, NY 11211",40.7210284353333,-73.9567896387259,196,4.0,11211
r-EDS_eO70HUgDmOk5_8Qw,Juniper,"237 W 35th St, New York, NY 10001",40.752472,-73.991463,373,4.0,10001
zLNOCv3hmzPNO8pchYdBpw,Joe Jr. Restaurant,"167 3rd Ave, New York, NY 10003",40.73468,-73.98596,290,4.0,10003
zxQGrv0uJ5b_k0l_ma6E3A,Jalopy Tavern,"317 Columbia St, Brooklyn, NY 11231",40.6813158,-74.0043547,30,4.0,11231
moaPtBNbQ5VNu2Z0ilCVGQ,Walter's,"166 DeKalb Ave, Brooklyn, NY 11217",40.6894111633301,-73.973258972168,449,4.0,11217
J5y7oRfiGtxFDkYGKxFZkw,Anella,"222 Franklin St, Brooklyn, NY 11222",40.73327,-73.95786,363,4.0,11222
oXnJEg_AScyrR1lO4dnAfw,The Wheelhouse,"165 Wilson Ave, Brooklyn, NY 11237",40.700122,-73.924188,184,4.0,11237
rrDymUQnu95UnZtTeeHfnA,Dalton's Bar & Grill,"84-14 Astoria Blvd, East Elmhurst, NY 11370",40.7643505,-73.8845281,24,4.0,11370
y6XohzcYjUAQOD8U3NT_yw,The Stag's Head,"252 E 51st St, Ste 1, New York, NY 10022",40.755592,-73.968588,387,4.0,10022
aXPvbifX51u27Ls4gzftZw,TGA NYC,"320 W 36th St, New York, NY 10018",40.75374,-73.99374,27,4.5,10018
Om6KGbN524K6pu9IkPT0Rg,Maite,"159 Central Ave, Brooklyn, NY 11221",40.69924,-73.926797,148,4.0,11221
5ZWX85Le2vNrtAw5s9lHdQ,Halsey's Tavern,"30-95 33rd St, Astoria, NY 11102",40.7636753,-73.9215822,81,4.0,11102
e64Y17DJgjotSz8B9gEI7Q,Ugly Baby,"407 Smith St, Brooklyn, NY 11231",40.67793,-73.996014,133,4.5,11231
6ycMkuiDwmvJKYbSP-24Cg,Good Dish,"2 W 58th St, New York, NY 10019",40.7636528,-73.9738388,2,5.0,10019
_BsM67A1_JqAmgXA3SznKg,La Fusta Restaurant,"80-32 Baxter Ave, Elmhurst, NY 11373",40.7446937,-73.8843894,226,4.0,11373
8qBy2-x0i9P7eigcwIGuQA,Latham House,"299 Marin Blvd, Jersey City, NJ 07302",40.7186723130924,-74.0419214298909,252,4.0,07302
hK14kghcSPkljAqzEHNemA,Sugarburg,"519 Metropolitan Ave, Brooklyn, NY 11211",40.7141182158499,-73.9516061916947,248,4.5,11211
gggXRnwG3AujyMeWfQxqXQ,Noga,"120 Allen St, New York, NY 10002",40.7193539,-73.9899627,15,4.0,10002
_gzXNKarTxagBp6_PkmQKw,Gotham Bar and Grill,"12 E 12th St, New York, NY 10003",40.734186,-73.993696,1420,4.5,10003
shTLI1GCcZ9rosFdt8d2Xg,Purbird,"82 Sixth Ave, Brooklyn, NY 11217",40.67985,-73.97518,420,4.0,11217
wFjELmsEYh972BG79HwMqA,Upstairs at 21,"21 W 52nd St, New York, NY 10019",40.76037,-73.97741,8,4.5,10019
Py_oBQpNR8kMI3GbH-71Yg,Ltauha Restaurant,"55-50 Myrtle Ave, Ridgewood, NY 11385",40.6998889,-73.9067463,302,4.5,11385
i66wTfSG50VEMvzJNYm8Sw,The Sound Bite,"737 9th Ave, New York, NY 10019",40.76341,-73.98923,30,4.5,10019
iu8nqOMFdUPg201QMkrGJw,American Whiskey,"247 W 30th St, New York, NY 10001",40.749403,-73.994049,291,3.5,10001
DhBhEWMVLDxYF14a1znUvA,Lighthouse,"145 Borinquen Pl, Brooklyn, NY 11211",40.7108676812019,-73.9537052347366,211,4.0,11211
GlSWzWVmQsKLGxySYSGRbQ,Smithfield Hall,"138 W 25th St, New York, NY 10001",40.7447532620452,-73.9934939850447,406,4.0,10001
qLLxS7RwNEjP_jq_KQrPfA,Traif,"229 S 4th St, Brooklyn, NY 11211",40.710658,-73.958872,1732,4.5,11211
zX8IF7oCbw1HrNaPmOBy-g,FERNS,"166 1st Ave, New York, NY 10009",40.72881,-73.98403,31,4.5,10009
LGJpNThRpqMURArl9fl7dg,Left Bank Burger Bar,"194 Newark Ave, Jersey City, NJ 07302",40.72182,-74.046195,583,4.0,07302
PxL3d_T7fQEXR7SDjjXvGg,Landhaus at Berg'n,"899 Bergen St, Brooklyn, NY 11238",40.67758,-73.95736,43,4.5,11238
55spA8dSOvKRme3ix-k7gg,Westville - West,"210 W 10th St, New York, NY 10014",40.7340046,-74.0041863,873,4.0,10014
e1d40LtcHu8WU4iaJxLdVw,Hooked JC,"467 Communipaw Ave, Jersey City, NJ 07304",40.7146930849064,-74.0670708676607,257,4.5,07304
_kAe3HpRbNUTVVG8yUdbhw,Delaware and Hudson,"135 N 5th St, Brooklyn, NY 11211",40.7169867729439,-73.9592314309387,246,4.0,11211
F3kbLGkAc9pNn8O_AElzbg,The Westbury Inn,"673 Flatbush Ave, Brooklyn, NY 11225",40.6568219822565,-73.9599666371942,60,4.0,11225
HdYmIA2jRBbKnU1mGJ9a3Q,The Quarter Brooklyn,"87 Lafayette Ave, Fort Greene, NY 11217",40.6874192552749,-73.9748689904809,110,4.0,11217
YHXsmYfxbgczsq8Ie1_C5w,Concord Hill,"374 Graham Ave, Brooklyn, NY 11211",40.71558,-73.94428,117,4.0,11211
JYNBy2r3LVhJbLHE1bASfg,The Smith,"1900 Broadway, New York, NY 10023",40.7716201269986,-73.9818377981476,1288,3.5,10023
xhuDOqY9G5mPuSqBnMCaYw,Henry's End,"44 Henry St, Brooklyn, NY 11201",40.6997,-73.99217,307,4.0,11201
QrDNHQ3oOEc5s-zLzu5fVA,Wolf and Deer,"74 5th Ave, Brooklyn, NY 11217",40.68076,-73.977751,236,4.0,11217
MyQV4i518ZO4CLudtR8gLA,The Bar Room,"117 E 60th St, New York, NY 10022",40.763409,-73.968449,390,4.0,10022
R2L4oLRsCK_rykvasJZHmw,Bushwich Sandwich Lab,"143 Troutman St, Brooklyn, NY 11206",40.70003,-73.92945,19,5.0,11206
56nGFQ5PVuGErwcAR34QAw,Meadowsweet,"149 Broadway, Brooklyn, NY 11211",40.7103995,-73.9632384,287,4.0,11211
_hNMRzm0QhR7I41plTbyXw,Nowadays,"56-06 Cooper Ave, Ridgewood, NY 11385",40.6930436149127,-73.901419658197,108,4.0,11385
Z-hDHjP4Eza6BA4G97tzVA,BLVD Bistro,"239 Lenox Ave, New York, NY 10027",40.8058608,-73.9469981,545,4.0,10027
kJExyhre8kocF5gI9y4IDA,Villanelle,"15 E 12th St, New York, NY 10003",40.73441,-73.99329,41,4.5,10003
vkQSMwAf5yqDw9HfEQYgzw,The Flower Shop,"107 Eldridge St, New York, NY 10002",40.71807,-73.99213,58,4.0,10002
3V20VbC45XL4TBYTL9DrOg,David's Cafe,"110 St Marks Pl, New York, NY 10009",40.7269310030458,-73.9843428879976,144,4.0,10009
cDSSZaRd-oW0RK_f7xnZaw,Bay Market Kitchen,"850 3rd Ave, Brooklyn, NY 11232",40.6593232778945,-74.0048465999408,60,4.0,11232
fmrtc7AsD7GS3BAfJ8QQHQ,Gentleman Farmer - Fort Greene,"378 Myrtle Ave, Brooklyn, NY 11205",40.692995,-73.971074,99,4.5,11205
PYcL2z9gHj6-ZTlViT9Nqw,Minetta Tavern,"113 Macdougal St, New York, NY 10012",40.7300047976758,-74.0006073834151,1946,4.0,10012
F-QQCnbsw48dfx4qVf-WoQ,Monk Mcginn's,"57 Murray St, New York, NY 10007",40.71432,-74.00972,11,4.5,10007
uVimnyjMcc7MOGzd2NRX-w,North Pole Pub,"428 Bergen St, Brooklyn, NY 11217",40.68154,-73.9774,31,4.5,11217
BfhICClikxU7AG01nOOeCA,Prospect,"773 Fulton St, Brooklyn, NY 11217",40.686279,-73.973701,206,4.0,11217
zHh6ioC3tSXBFhXXuXrL8A,Gebhard's Beer Culture,"228 W 72nd St, New York, NY 10023",40.7789842521222,-73.9830464352102,85,4.0,10023
L3HDotnnzGKZfoy62kZAkg,Camperdown Elm,"441 7th Ave, Brooklyn, NY 11215",40.66312,-73.98454,56,4.5,11215
gZeMNO7BlD_M-hk63LWPzw,Best Coffee Shop,"4410 Fort Hamilton Pkwy, Brooklyn, NY 11219",40.6407661437988,-73.9946517944336,29,4.0,11219
P2CTp4xyaNCe2AXSiLeOSQ,The Odeon,"145 W Broadway, New York, NY 10013",40.71692,-74.00792,546,4.0,10013
bVkavwJ8OgU4yPiUMoEOPg,Jia Nyc,"23 Essex St, New York, NY 10002",40.715434,-73.9900831,29,4.5,10002
qMn3Qa7gDsD5vnFEe_5gYg,N4 Taproom,"238 Bedford Ave, Whole Foods Market, Brooklyn, NY 11249",40.71611,-73.95974,3,4.0,11249
hcxdYdqMiuFVPYza3DEkdQ,Clara's,"53 Wilson Ave, Brooklyn, NY 11237",40.7026415723614,-73.9288031364672,49,4.5,11237
Gn7oaWjBoEGHe1_bfsBikg,Virginia's,"647 E 11th St, New York, NY 10009",40.72666,-73.9773,140,4.0,10009
92vOHinyRpz2GI_clH8-uQ,Sticky's Finger Joint,"21 Maiden Ln, New York, NY 10038",40.7093087362013,-74.0090160288361,87,4.0,10038
pNYcGGAj4AYaExlmrEmfUw,Harry's Cafe & Steak,"1 Hanover Sq, New York, NY 10004",40.704512,-74.009834,572,4.0,10004
xTWpl9DgIkkr5B8h8_xUpA,Lokal 83 Mediterranean Kitchen,"473 Columbus Ave, 83rd street, New York, NY 10024",40.7842696,-73.9734941,140,4.5,10024
eTneVbjPKdo4gD9HfkDGdA,Santa Panza,"1079 Broadway, Brooklyn, NY 11221",40.6947,-73.93068,89,4.5,11221
0yg9DS4RDceQ6HgH3Jx80Q,Sean's Bar & Kitchen,"42 West 48th St, New York, NY 10036",40.75801,-73.98008,158,4.0,10036
cQVW6-IrfM0TYXdZUerxlQ,No 7 North,"931 Manhattan Ave, Brooklyn, NY 11222",40.731189,-73.954734,66,4.0,11222
OzgvdC0oJPh1FQTLJF2yXw,Fancy Nancy,"1038 Bedford Ave, Bedford-Stuyvesant, NY 11205",40.6895209324106,-73.9552916183814,95,4.0,11205
Z65cd3Z7JvwK8TnSVg-cfA,District Tap House,"246 W 38th St, New York, NY 10018",40.75409,-73.99039,670,4.0,10018
Pn5B8A4P23d5_FE6y8A2wA,Mama Fox,"327 Stuyvesant Ave, Brooklyn, NY 11233",40.6832286325504,-73.9319809048272,24,4.5,11233
DCTWsTYqkbwJ-pFCIwmHew,Gleason's Tavern,"206 W 41st St, New York, NY 10036",40.75539,-73.98809,74,4.0,10036
ZgyvDF_hOWas3SXe0Hj7hA,Schilling,"109 Washington St, New York, NY 10006",40.70857,-74.014,104,4.5,10006
K2IG-jUEGURqX-gYdQ6wZg,Raise New York,"416 3rd Ave, New York, NY 10016",40.7431,-73.98032,39,4.5,10016
XsElXaLxUPKquI78poB8yw,Maison Pickle,"2313 Broadway, New York, NY 10024",40.7870043970907,-73.9780229034143,444,4.0,10024
MSw9X444Qaj0Iw2j3H9ubw,In Between Cafe,"1866 Flushing Ave, Ridgewood, NY 11385",40.711831,-73.919266,4,5.0,11385
xMUZfoyzyJoTfZxrEZus4Q,Mom's Kitchen & Bar,"701 9th Ave, New York, NY 10019",40.76247,-73.9901,202,4.0,10019
lXGCo-K7eftxRT_6E59-Iw,Union Square Café,"101 E 19th St, New York, NY 10003",40.73775,-73.987874,1038,4.0,10003
c4fhzEx1za54hrbkhZL5HA,Bleecker Street Luncheonette,"270 Bleecker St, New York, NY 10014",40.73135,-74.00327,14,4.5,10014
TY1Wj3lIa0BNkBZz3Yn7hQ,Grandma's House,"364 Atlantic Ave, Brooklyn, NY 11217",40.68726,-73.98638,147,3.5,11217
6AC4yhUdnh64zE6b5-n6OQ,Renaissance Harlem,"2245 Adam Clayton Powell, New York, NY 10027",40.8133399,-73.94467,41,4.5,10027
8FvdmDeaE74iYtslwNPITg,Lot 2,"687 6th Ave, Brooklyn, NY 11215",40.6605911254883,-73.9903106689453,241,4.5,11215
9FnH4XwW2SNPztHg49ISyg,Rebecca's,"610 Bushwick Ave, Brooklyn, NY 11206",40.6981613,-73.9340956,5,4.5,11206
gTAiQ5XyolMaFZ8t-ASqTQ,Yes Chef Wine Bar,"44-10 30th Ave, Astoria, NY 11103",40.76199,-73.91161,15,5.0,11103
hGo9KArKThuOKxNbwmNpoA,Ruby's Cafe,"219 Mulberry St, New York, NY 10012",40.7223,-73.99623,912,4.0,10012
_7-wGQfXNgbr-WDIMzUvZw,The Moonlight Mile,"200 Franklin St, Brooklyn, NY 11222",40.7321141,-73.9578424,56,5.0,11222
J4-UKUUx_cuclPt__ZwOPg,One Mile House,"10 Delancey St, New York, NY 10002",40.720394,-73.99321,201,4.0,10002
IZw7SfYpvXMFLErXBMDKVQ,Stone Park Cafe,"324 5th Ave, Brooklyn, NY 11215",40.67297,-73.98332,815,4.0,11215
Cz6It2NB_QBXCjnlsWGZSA,Boulton & Watt,"5 Ave A, New York, NY 10009",40.7224963,-73.986439,609,4.0,10009
e_2o3neKJ5vwDXKd70XLBg,Uncle Peter's,"83-15 Northern Blvd, Jackson Heights, NY 11372",40.75598,-73.88382,156,4.0,11372
Vx9jsY90nQ9PCKBa1aCt9w,Tom's,"782 Washington Ave, Brooklyn, NY 11238",40.674491,-73.963439,1145,4.0,11238
XZdIVnCswlOz5UOX8-ud8Q,Manà Restaurant,"324 7th St, Jersey City, NJ 07302",40.7265738272435,-74.0485748190343,5,4.5,07302
Bw34nA4J3Oumxyvi7KssAg,Bread and Butter Market,"589 Main St, Roosevelt Island, NY 10044",40.7626255270696,-73.9495726984159,4,3.5,10044
I6optu9x0JAf8oT5lqJ8qw,Blue Dog Kitchen Bar,"308 W 50th St, New York, NY 10019",40.7623561,-73.9866376,920,4.0,10019
LJaLQby_H8E9eHvcIW0xnw,Spoon Table & Bar,"40 East 33rd St, New York, NY 10016",40.7469069957733,-73.9831063896418,212,4.0,10016
8dkPWx3Upl1H6tLwLiEsPw,Eastwood,"200 Clinton St, New York, NY 10002",40.714155,-73.987064,125,4.0,10002
qtbBMwko2vKneqtHjs4Gcw,K & L Jamaican American Cuisine,"3204 3rd Ave, West Bronx, NY 10454",40.822782369758,-73.9095000441801,6,4.5,10454
J3xSIWSznPe9Ii8B_HOksA,Ed & Mary's,"174 Coles St, Jersey City, NJ 07307",40.7287270058542,-74.0465716965112,38,4.5,07307
6G0urbBDz_CnYnGXApgUcw,Boutros,"185 Atlantic Ave, Brooklyn, NY 11201",40.6901481293837,-73.9935445412993,73,4.5,11201
kXfmIaFce_qD86SmtWPh7g,Brooklyn Star,"593 Lorimer St, Brooklyn, NY 11211",40.714592,-73.949764,579,4.0,11211
gt-0HkY2DC-NscmhOsKOWw,The Hutton,"225 Hutton St, Jersey City, NJ 07307",40.746707841754,-74.0555749833584,110,4.5,07307
Duh9gmBVHodHKQaQqsyZcg,Mom's Kitchen & Bar,"33-01 31st Ave, Astoria, NY 11102",40.76372,-73.92158,463,4.0,11102
6hKJePanmG9AxK4dfwgyyg,The Horny Ram,"951 2nd Ave, New York, NY 10022",40.755275,-73.968574,202,4.0,10022
RbMC9zD11aB3kgrXi6O3BQ,The Narrows,"1037 Flushing Ave, Brooklyn, NY 11237",40.704114,-73.930878,162,4.0,11237
w5B0FmQoEOoeURoFuguh0w,The Brew Inn,"924 Manhattan Ave, Brooklyn, NY 11222",40.731044,-73.954101,120,4.0,11222
9OKc9dAnIVmBWae_x8a0bg,Chadwick's,"8822 3rd Ave, Brooklyn, NY 11209",40.62156,-74.03201,197,4.0,11209
ehyZHDeH7d1KOJLrOHfnEw,Melt Shop,"111 Fulton St, New York, NY 10038",40.7097319537713,-74.0065573416641,301,4.0,10038
lMy1BYJ5HX8TccXTBwdRNg,Covenhoven,"730 Classon Ave, Brooklyn, NY 11238",40.675246,-73.960244,95,4.5,11238
FCms-eFFxnpMLm09AJridQ,Peaches Shrimp and Crab,"285 Grand Ave, Brooklyn, NY 11238",40.687997,-73.962681,168,4.0,11238
mojQ_3WMhHzrSYpWJQlwkQ,East Wick,"112 Graham Ave, Brooklyn, NY 11206",40.705051,-73.9425849,234,4.0,11206
59c0qGZzduYOGopDx4KXuQ,Till & Sprocket,"140 W 30th St, New York, NY 10001",40.7478754059662,-73.9916682628767,115,4.0,10001
bTuXY73qdFhl6Nr0x_uIwg,Caledonia UWS,"424 Amsterdam Ave, New York, NY 10024",40.78417,-73.97793,46,4.5,10024
-HiXTEOjAjnO6TUJwfVkVA,Sabba's Chicken,"1504 Westchester Ave, Bronx, NY 10472",40.8280139959468,-73.8796062435036,3,3.5,10472
qey4HXKGJTlhAcN5ZbEdZQ,Astoria Craft,"1801 26th Rd, Astoria, NY 11102",40.77332,-73.92715,121,4.5,11102
3y_-DwmoM198umnZHSOmKQ,Yves,"385 Greenwich St, New York, NY 10013",40.7202,-74.00986,31,4.0,10013
PMp7WlHIXQUnej-Ds1jRfw,Blind Tiger Ale House,"281 Bleecker St, New York, NY 10014",40.731926,-74.003223,828,4.0,10014
AkRdoWYv2QmsXD9LSWl2zw,Dinerbar,"97-45 Queens Blvd, Rego Park, NY 11374",40.72958,-73.85944,227,4.0,11374
0Bm2vjJW5Fw7_Maer6kDUw,Melt Shop,"135 W 50th St, New York, NY 10020",40.76062,-73.98192,448,4.0,10020
ErLyWgKVVtG0dABW_BJS8g,Tin Kettle,"611 Vanderbilt Ave, Brooklyn, NY 11238",40.6789820209096,-73.9680890366435,81,4.0,11238
ugzHlkx2ILYzs72_8hxV8w,Wheeler's Restaurant,"1707 Sheepshead Bay Rd, Brooklyn, NY 11235",40.5857567,-73.95157,145,4.0,11235
9AXTJkwXdWaJaQkCjpj6mA,Sunday in Brooklyn,"348 Wythe Ave, Brooklyn, NY 11249",40.714145,-73.965322,312,4.0,11249
j8DFd-bxnvM_UfHnDLIA0g,Woodrow's,"43 Murray St, New York, NY 10007",40.7140586525202,-74.0092921257019,296,4.0,10007
8G6H30Krmj8-OHs6hZfT1g,Belle Harlem,"2363 Adam Clayton Powell Blvd, New York, NY 10030",40.8173,-73.94171,78,5.0,10030
ZGUe-3-jApDJjebQPr_Qwg,Seamstress,"339 E 75th St, New York, NY 10021",40.77015,-73.95496,261,4.0,10021
kMxXLrASxsbmS-ZzAaBe-A,Molly's,"287 3rd Ave, New York, NY 10010",40.738285,-73.983297,471,4.0,10010
0BzxIsoRuFvxbMPl-iH70A,Market Table,"54 Carmine St, New York, NY 10014",40.7297659255873,-74.0037665277862,737,4.0,10014
w7iv-eE7jCNKV9EBmRdkVw,Rocket Pig,"463 W 24th St, New York, NY 10001",40.74834,-74.00338,193,4.5,10001
jSrDUsCXkKqbBQ9sqDLFcg,Magna Restaurant,"3525 Farrington St, Flushing, NY 11354",40.76371,-73.831117,94,4.5,11354
L5iUBm_rH6cmjNyNVQV62A,Upper Story by Charlie Palmer,"979 3rd Ave, Fl 14, New York, NY 10022",40.76096,-73.96626,30,4.5,10022
7fSrrMD75A210TJg8oq-6Q,The Red Cat,"227 10th Ave, New York, NY 10011",40.74815,-74.00425,650,4.0,10011
Dci3yvrnPZ5kOF5t3xV8gg,The Hop Shoppe,"372 VanDuzer St, Staten Island, NY 10304",40.629169,-74.079839,181,4.0,10304
XAeGAF5MGr7P6A13SnXbjQ,Merchants River House,"375 S End Ave, New York, NY 10280",40.7112882252543,-74.0176175854584,297,3.5,10280
F37Gp6exe2v8yuzr_gy5BQ,Libertador,"404 Henry St, Brooklyn, NY 11201",40.6872890722053,-73.9980973979345,170,4.0,11201
Rxdoi-Sxsgu17JM-Xl--7g,All American Diner,"1 State St, New York, NY 10004",40.7026272886716,-74.0132341888022,10,3.5,10004
khXLJG2oVWcuHfO77F4CEQ,Ruumy's Tavern,"310 W 53rd St, New York, NY 10019",40.76437,-73.98545,40,4.5,10019
Xk3BVvlX-KXh6kJhbClMKw,Fine & Rare,"9 E 37th St, New York, NY 10016",40.7501754760742,-73.9821929931641,133,4.0,10016
BEYmqrP1_TC0nhnTGKkkJg,Ella Kitchen & Bar,"249 Columbus Ave, New York, NY 10023",40.7770496467021,-73.9788913948279,342,4.0,10023
4pkQohExoYIGYjCsfKJA8Q,Zoe's Place,"38-70 10th St, Long Island City, NY 11101",40.7573116,-73.9442069,4,4.0,11101
56qlj1cYlqNzmG0xllGg-w,Westville Dumbo,"81 Washington St, Brooklyn, NY 11201",40.70181,-73.98954,137,4.0,11201
ZfOL6JtqaYUEIvr3HM0hlA,KarVér Brasserie & Bakery Café,"129 Livingston St, Brooklyn, NY 11201",40.69101,-73.98859,5,4.0,11201
W8flNX3SneJlQBQt7C9Q9w,Northern Bell,"612 Metropolitan Ave, Brooklyn, NY 11211",40.7138900756836,-73.9485473632812,213,4.0,11211
xbrQ2dHuQoFJmNxAuOky4A,Vic's,"31 Great Jones St, New York, NY 10012",40.72683,-73.99328,327,4.0,10012
z4uhAbfX6sW9jipS7Br6RQ,Fresh Kitchen,"25-07 Queens Plz N, Long Island City, NY 11101",40.7507976,-73.9395319,35,4.0,11101
pDUQF3IgvqZfT31luMgwTA,CK14  The Crooked Knife,"232 W 14th St, New York, NY 10011",40.739015,-74.001506,413,4.0,10011
qNVN0dsnl4akLNueEoY-Hw,Gem,"116 Forsyth St, New York, NY 10002",40.7190867,-73.9923073,10,4.5,10002
WfJNUmeFNU8_fznPgY9N_g,Ida's Nearabout,"43-13 Queens Blvd, Sunnyside, NY 11104",40.7437641,-73.9208344,72,4.0,11104
tEo6jBtz8Y4VJpq0EbmWLw,Greene Hook,"70 Greene St, Jersey City, NJ 07302",40.71468,-74.03534,113,3.5,07302
aqmBcayYzm_J58P_CNQH6w,East Market Diner,"2592 Atlantic Ave, Brooklyn, NY 11207",40.6753425598145,-73.8985443115234,34,4.0,11207
B0gSpE__eZtSZHOnrAEESg,Uncle's Shack & Grill,"1117 Rogers Ave, Brooklyn, NY 11226",40.642593,-73.951271,66,4.0,11226
rlkF5x0j5VyBpFA7U8zQHg,Chris's Restaurant,"1571 Richmond Rd, Staten Island, NY 10304",40.59124,-74.10126,19,4.5,10304
dMhRafXdr765DHe0k-QfaQ,ABC Kitchen,"35 E 18th St, New York, NY 10003",40.738085,-73.989472,2652,4.0,10003
h37t9rA06Sr4EetJjKrfzw,Don Angie,"103 Greenwich Ave, New York, NY 10014",40.73778,-74.00197,94,4.5,10014
1Q3oaJahyGRogDWgpo7PIw,Five Leaves,"18 Bedford Ave, Brooklyn, NY 11222",40.72371830945,-73.95159863632,1429,4.0,11222
HwEc9t8vV_DPCyFe3tVJ2Q,Bar Velo Brooklyn,"394 Broadway, Brooklyn, NY 11211",40.707069,-73.954429,30,5.0,11211
U2EvUcS9KtXDv_Yw3cugiw,Chez Ma Tante,"90 Calyer St, Brooklyn, NY 11222",40.7268966108951,-73.9574290439961,47,4.5,11222
DlLYddNASED5fcmZzu9dOw,Koda Restaurant & Lounge,"985 Flushing Ave, Brooklyn, NY 11206",40.703128,-73.933319,67,4.0,11206
AKHA6ZU8uM3vmLwH2hqH_A,Loring Place,"21 W 8th St, New York, NY 10011",40.73299,-73.99754,216,4.5,10011
UTzACyFayWbmg19iqrXFXA,Boilermaker,"13 First Ave, New York, NY 10003",40.72345,-73.98855,187,4.0,10003
4hukJNoy9F2ILYJZWl4Xlw,Set L.E.S,"127 Ludlow St, New York, NY 10002",40.7198495417833,-73.9885318279266,302,4.0,10002
BBszjdL8z21T9JpnNYgGiw,Cherry Point,"664 Manhattan Ave, Brooklyn, NY 11222",40.7244954175426,-73.9511575076571,90,4.5,11222
RfxOtJ4SQmEeVX_XjFLWUQ,OTIS,"18 Harrison Pl, Brooklyn, NY 11206",40.706019,-73.932604,51,5.0,11206
bJBDLBZiak_pCI5CuvAfAA,Formerly Crow's,"85 Washington Pl, New York, NY 10011",40.7322,-74.00003,60,4.0,10011
Ry9w-jFALWYhazi6jjyIKw,Rucola,"190 Dean St, Brooklyn, NY 11217",40.68554,-73.98592,413,4.0,11217
Ogy4UZvXdGrzEldp6ssYoQ,Las Lunitas,"195 Stanhope St, Brooklyn, NY 11237",40.699800029397,-73.9213880896568,115,3.5,11237
owYYuyLvlsdjLz68c3SSfg,Taboonette,"30 E 13th St, New York, NY 10003",40.7347009,-73.9927323,526,4.0,10003
xiEBdZ8z5KY21Vw2pY2fJQ,Two 8 Two Bar & Burger,"282 Atlantic Ave, Brooklyn, NY 11201",40.688536,-73.989728,547,4.0,11201
dkAj-3gmkvdA4XkJmw6hCw,Juanchi's Burger,"225 S 1st St, Brooklyn, NY 11211",40.71296,-73.95889,162,4.0,11211
3aMjf-zblMsOYnzXV5D70A,Moo Burger,"240 Court St, Brooklyn, NY 11201",40.685823,-73.994528,395,4.0,11201
Rqi5g1t0LodhmA8p66GJEA,Corona Diner,"91-28 Corona Ave, Elmhurst, NY 11373",40.74224,-73.87255,78,4.0,11373
R7EGjHWw0tNheY6-ahH8fQ,Tuome,"536 E 5th St, New York, NY 10009",40.72412482724,-73.9828906263924,327,4.5,10009
RZvUUM0vJVji8mSnPSFhTA,James,"605 Carlton Ave, Brooklyn, NY 11238",40.678984,-73.971489,393,3.5,11238
rtCNN0TT2C_FH8zVPMy1sw,Burger Bistro,"177 5th Ave, Brooklyn, NY 11217",40.6771695,-73.97965,391,4.0,11217
N-R0J3o7cmbd2ZwtLWHntQ,Chop Chop Grub Shop,"3507 Ditmars Blvd, Astoria, NY 11105",40.77484,-73.90841,64,4.5,11105
4nO6ZJz6Lxu8fsyfOUx1pw,Upper East Café,"1048 3rd Ave, New York, NY 10065",40.7633565,-73.9654055,121,3.5,10065
XLT7aNLJEhIdoieNjPw8Gg,Blueprint,"196 5th Ave, Brooklyn, NY 11217",40.6769,-73.980411,284,4.5,11217
aU8ZfmIVm1Ii52QEX7p9NA,Two Forks,"119 W 40th St, New York, NY 10018",40.7539974153042,-73.9859890937805,71,3.5,10018
QpkKEFHK5dz8XT-osEXgJw,The Grey Dog,"242 W 16th St, New York, NY 10011",40.740624,-74.000648,933,4.0,10011
Xiqf_VUWZeoAo7c2kfEiXw,Delia's Lounge & Restaurant,"9224 3rd Ave, Brooklyn, NY 11209",40.618809,-74.033272,122,4.0,11209
V9Aa3cQ86s0YZEKj61-Dog,Mannys,"459 Mother Gaston Blvd, Brooklyn, NY 11212",40.66785,-73.90622,1,5.0,11212
_LJFf9YqpYxvExTvVxb7Rw,The Modern,"9 W 53rd St, New York, NY 10019",40.7610060884932,-73.9767725608521,808,4.5,10019
m86CNmYThtzzWB3nPnrhbg,Emily - West Village,"35 Downing St, New York, NY 10014",40.729330068469,-74.0038400073579,251,4.0,10014
1Jjg8-vQVRQqqtL4sODi5g,Mekelburg's,"293 Grand Ave, Brooklyn, NY 11238",40.6875419616699,-73.9623336791992,192,4.5,11238
BLOhJ35G077GpNCNrKgryw,Thunder Bun,"1 New York Plz, New York, NY 10004",40.7023139,-74.0114968,25,3.5,10004
yy8jf3cnbXG4KOLGNJVfig,Burger & Barrel,"25 W Houston St, New York, NY 10012",40.7258,-73.99793,744,3.5,10012
yHXJFk_oialGqTUfyMVfoQ,North End Grill,"104 N End Ave, New York, NY 10282",40.7153019360304,-74.0155700093887,364,4.0,10282
ibn2z12D6Hnf-KiDg3nxiw,Burger It Up,"146 Knickerbocker Ave, Brooklyn, NY 11237",40.70427,-73.92845,196,4.0,11237
Ai9zcAveCf-eRPup4HIXhw,Shorty's,"62 Pearl St, New York, NY 10004",40.7034454,-74.0110779,225,4.0,10004
GRhA1hH1edG48tj2T5I6CA,Crimson & Rye,"198 E 54th St, New York, NY 10022",40.7580738959145,-73.9687237968059,100,4.0,10022
RXX8EgFdSFl_uEyq7FhcNg,Skytown,"921 Broadway, Brooklyn, NY 11206",40.6976048354338,-73.9360729407192,225,4.0,11206
cRsIsiuoV11zX8oLY8brhQ,dumboLUV,"54 Jay St, Olympia Wine Bar, Brooklyn, NY 11201",40.7032593,-73.9866501,6,5.0,11201
tLrmUO7QhCSt_l1D3QRiNQ,Union Square Burger,"729 8th Ave, New York, NY 10036",40.7596798012113,-73.9882033333333,87,4.0,10036
RAejT6MPqqpprhgiCDdyJA,The Grayson,"16 1st Ave, New York, NY 10009",40.72338,-73.98797,173,4.0,10009
aAqdmE9QFLLQsYDMibtbJA,Mama Eatery,"46 Mulberry St, New York, NY 10013",40.71503,-73.99956,101,4.0,10013
E3MkTTS4ZDjWV9YT5i6eUg,Houseman,"508 Greenwich St, New York, NY 10013",40.7256288347129,-74.0092368030346,73,4.0,10013
h5WkewI6U7NjLB_n6WgdvQ,HandCraft Kitchen & Cocktails,"367 3rd Ave, New York, NY 10016",40.7410658150911,-73.9814487844706,244,4.0,10016
E2mNgb479B3BCfwi2G_KdQ,Flat Top,"1241 Amsterdam Ave, New York, NY 10027",40.810041,-73.958693,359,4.0,10027
gaxx8auiAGlKW3FTF0N-ww,Bubby's High Line,"73 Gansevoort St, New York, NY 10014",40.7395398791443,-74.0078054871199,488,3.5,10014
WFyGR8sW10AzbAoQ4T7Ung,The Paris Cafe,"119 South St, New York, NY 10038",40.70732,-74.00159,239,3.5,10038
tteuwV9tNqiANsw1ryfX0A,Chat n' Chew,"10 E 16th St, New York, NY 10003",40.73692,-73.99194,10,4.0,10003
7Wd4pLyM6rqlC8YQexBJbg,Pure Bistro,"88 5th Ave, Brooklyn, NY 11217",40.680447,-73.977959,202,4.0,11217
vGS5X12NYXCl8NpynlxRuw,Oscar Wilde,"45 W 27th St, New York, NY 10001",40.74514,-73.9900399,265,4.0,10001
q45SMZfNrF4XZZWzIC4tGw,Westville Hudson,"333 Hudson St, New York, NY 10013",40.727125,-74.007683,417,4.0,10013
74SKT4IxG-hXz71nRbheng,Ozi Dumplings,"19 Bogart St, Brooklyn, NY 11206",40.70381,-73.933159,40,4.0,11206
BSv3awhABROYjjwlQaQ-Qw,Tiny's & the Bar Upstairs,"135 W Broadway, New York, NY 10013",40.716698,-74.00816,466,4.0,10013
0y6eQXDw2RDLuBwkY02xGA,Aretsky's Patroon Townhouse,"160 E 46th St, New York, NY 10017",40.7533599,-73.9732416,189,4.0,10017
mHOFDJitUfgVGCxY2z9liw,Vinny's Lunchbox,"171 Ave U, Brooklyn, NY 11223",40.5966682434082,-73.9779739379883,50,4.0,11223
0D4a1adz96Gxnfd0JqwrEg,The Whitby Bar and Restaurant,"18 W 56th St, New York, NY 10019",40.76271,-73.97566,22,4.0,10019
cHcKR-nHrfIJATmx4ON8Cw,Basquiat's Bottle,"1198 Fulton St, Brooklyn, NY 11216",40.68042,-73.9526996,16,4.5,11216
ykXZyQBXxoOMoZfaZMnHmg,Tryon Public House,"4740 Broadway, New York, NY 10040",40.8649821372469,-73.927843119049,296,4.0,10040
VkwB8OziGSgTqY5kpSSf4g,Logan's Run,"375 5th Ave, Brooklyn, NY 11215",40.6710931618244,-73.984489494555,3,4.5,11215
3omBIylGFJugwLgNgUgOXw,Bar Bacon,"836 9th Ave, New York, NY 10019",40.7664356,-73.986764,960,4.0,10019
_lYYTMno4OAvGQHml37LGw,Two Door Tavern,"1576 3rd Ave, New York, NY 10128",40.780635,-73.953071,87,3.5,10128
t7xqAMBQNH4ppsPSOMzFyg,Treadwell Park,"1125 1st Ave, New York, NY 10065",40.7614,-73.9609,277,4.0,10065
W0c-FS060axwxHcCtJwuRw,Broadway Restaurant,"2664 Broadway, New York, NY 10025",40.79791,-73.96908,133,4.0,10025
i38R1KxL99JoG-Ns7FyyGw,12 Chairs,"56 MacDougal St, New York, NY 10012",40.72759,-74.0024,357,4.0,10012
KAxYFGyOQ7ysCmYmh8jKtw,The Bronx Public,"170 W 231st St, Bronx, NY 10463",40.87827,-73.90341,118,4.0,10463
zooS5ms4-vz3evQ3Cn6tmA,Mulberry & Vine,"155 E 44th St, New York, NY 10017",40.75233,-73.97386,54,4.0,10017
EKk-W0musmo4z1qnQQ5XgA,The Local Bar and Cafe,"13-02 44th Ave, Long Island City, NY 11101",40.7495622,-73.9477008,63,4.5,11101
6gxAuRoZnEFERnIrtE6BAg,Little King,"749 Metropolitan Ave, Brooklyn, NY 11211",40.7146009312125,-73.944029109973,55,4.5,11211
1gk8TCOubwKmGJZWxVRmQQ,Onderdonk & Sons,"566 Onderdonk Ave, Ridgewood, NY 11385",40.70546,-73.90993,57,4.5,11385
hkeMbvsLVrVgdpU_XRDvRA,STATE Grill and Bar,"Empire State Building, 350 5th Ave, New York, NY 10118",40.7482015401149,-73.9853947175581,102,4.0,10118
j3HLOkrjzBjcvYPiIHua1A,Jasper's Taphouse + Kitchen,"761 9th Ave, New York, NY 10019",40.764266,-73.9886122,229,4.0,10019
GA5msU6NO9rQRctPfDJCBg,Peaches HotHouse,"415 Tompkins Ave, Brooklyn, NY 11216",40.6833699737169,-73.9437798410654,935,4.0,11216
eGfpa9r0aGtN3V8ZwgaOEw,The Supply House,"1647 2nd Ave, New York, NY 10028",40.7775579,-73.9521892,277,4.0,10028
HYFSOb5o4hppToeYe1va1A,The Rookery,"425 Troutman St, Brooklyn, NY 11237",40.7073514,-73.9221093,174,4.0,11237
J6V8m1BuqXub2uZvoRX8pQ,Sal Restaurant,"810 Franklin Ave, Brooklyn, NY 11225",40.6702,-73.95829,23,4.5,11225
4MqJOLaeqCgBFQmMFPfe3g,Clover Club,"210 Smith St, Brooklyn, NY 11201",40.6846046447754,-73.9921875,671,4.0,11201
HyiLSYD9Zppd3eAhNHp3ag,The Finch,"212 Greene Ave, Clinton Hill, NY 11238",40.686831,-73.962875,158,4.0,11238
Hvi-M6bNWhueA4GZ5PcOTQ,Mathews Food & Drink,"351 Grove St, Jersey City, NJ 07302",40.72085,-74.04299,279,4.0,07302
3004g82RXwKoqaenSqBVEg,George Keeley,"485 Amsterdam Ave, New York, NY 10024",40.78583,-73.97597,309,4.0,10024
MMMDbtfpD1O_WNLoTuI08A,Rose's,"295 Flatbush Ave, Brooklyn, NY 11217",40.6790542602539,-73.9733657836914,68,3.5,11217
W0k5HHTa7IJsR51Nf7fOmA,Times Square Diner,"807 8th Ave, New York, NY 10019",40.7614036889404,-73.9869685269328,600,4.0,10019
_wGh4AYcmSicLTtxwmdPlA,Oak and Iron,"147 Franklin St, Brooklyn, NY 11222",40.731459,-73.958108,58,4.0,11222
iJUoxnxbCtVDMek4keHJFQ,Pokito,"155 S 4th St, Brooklyn, NY 11211",40.71162,-73.96184,78,4.5,11211
ULt3kmA0_hbZ3j6cMORCaA,Root & Bone,"200 E 3rd St, New York, NY 10009",40.72272,-73.98334,1302,4.0,10009
9W_dg9fvb-z8DBye2jfGiQ,Dazie's,"39-41 Queens Blvd, Sunnyside, NY 11104",40.7441737,-73.9248106,65,4.0,11104
1ExwosnCMtb7D3SF5ovo6w,The Pomeroy,"36-12 Ditmars Blvd, Astoria, NY 11105",40.7739,-73.908,174,4.0,11105
_h9aSxUXt256bbHZCQHFEw,The Randall Manor Tavern,"735 Castleton Ave, Staten Island, NY 10310",40.6262997115712,-74.1331451912438,19,4.0,10310
4D8t3t1gyCdqfOjTI5t6JQ,Hill and Dale,"115 Allen St, New York, NY 10002",40.719597,-73.990546,391,4.0,10002
oRCbrbLqvOcBuWPzSjOllQ,Alameda,"195 Franklin St, Brooklyn, NY 11222",40.733494,-73.958484,106,4.0,11222
ouhpws9JRRhbV0AhYh_RRg,Casa Del Sabor Restaurant,"4408 3rd Ave, Brooklyn, NY 11220",40.651054,-74.011664,4,5.0,11220
Wdt-exLSaHXQRH7V_7-VVg,Spoonfed New York Country,"331 W 51st St, New York, NY 10019",40.7636295,-73.9868805,135,4.0,10019
-f3GB9AGUqLFkXorluMFTQ,Beets and Carrots,"9905 3rd Ave, Brooklyn, NY 11209",40.6141099,-74.03489,80,4.5,11209
2wQsfQkorp9L03vPEFAZJw,Hudson Clearwater,"447 Hudson St, New York, NY 10014",40.73109,-74.00699,472,4.0,10014
fkXGPusS21ieBsl1qpaO4A,The Roof,"214 3rd St, Brooklyn, NY 11215",40.6750623814115,-73.9887130037048,48,3.5,11215
jRTYVF2SSibfx04YDJIqIQ,AWOL Bar & Grill,"337 3rd Ave, New York, NY 10010",40.7400413539776,-73.982189554631,26,4.0,10010
-olla_BldF5Y84I9ezRNdA,Hourglass Tavern,"373 W 46th St, New York, NY 10036",40.760952,-73.9903269,639,4.0,10036
-BOAKHyKKAXE1WhuVpMFkQ,The Good Fork,"391 Van Brunt St, Brooklyn, NY 11231",40.675914,-74.014213,374,4.0,11231
Vs-3byrsBYwd_Cnfl0CyFw,Bubby's Tribeca,"120 Hudson St, New York, NY 10013",40.7198118,-74.0083092,1112,3.5,10013
_HXbBN8PlW_Yjl_SFyiNtg,The Gavel Grill,"9 Hyatt St, Staten Island, NY 10301",40.6420365,-74.0768767,64,4.0,10301
ZhbHXqkEYNKLAbamW5peJQ,Narcissa,"25 Cooper Sq, New York, NY 10003",40.7279081084989,-73.9909284946934,422,4.0,10003
k8iVVuYic-fCgmzzfDkGNA,MOLOKO,"705 Myrtle Ave, Bedford-Stuyvesant, NY 11205",40.6949690078622,-73.954842,126,4.5,11205
JrJRfpGicISz_Gt9LkPMvw,Belli Osteria,"860 Fulton St, Brooklyn, NY 11238",40.6835199838354,-73.9669024162476,185,4.0,11238
98URsYAwTfXRPP5e1ONPug,Bed-Stuy Provisions,"563 Gates Ave, Brooklyn, NY 11221",40.68719,-73.944167,65,4.5,11221
ayOj0JXAsuGqVG8reuqpxQ,DiWine,"41-15 31st Ave, Astoria, NY 11103",40.76087,-73.91557,707,4.0,11103
OxqUWRZFUOz3r6_4bh4mfg,Cock & Bull,"23 W 45th St, New York, NY 10036",40.7560908823673,-73.9804858350908,414,4.0,10036
C6JyxvR4ToS3uhNr-UZFtw,LuLu Restaurant,"485 E 180th St, Bronx, NY 10457",40.85148,-73.8952,1,5.0,10457
42qsGN56bAsPhv5mhRZmGw,Landin Mac & Cheese,"701 Melrose Ave, Bronx, NY 10455",40.8200475,-73.9161737,109,4.0,10455
HL3HqL_EUdlXFvBtxa3gFQ,Broadway Fried Chicken & Pizza,"691 Broadway, Brooklyn, NY 11206",40.70181,-73.9434799,4,1.0,11206
1Ed-tb_0dBGrXfsYyehmvg,Momofuku Ssam Bar,"207 2nd Ave, New York, NY 10003",40.73169,-73.985846,2209,4.0,10003
JnOYZqzRBHkEB_mvMXph_g,Juquila Kitchen and Bar,"39-05 29th St, Queens, NY 11101",40.7532,-73.93436,39,3.5,11101
6a1AeJB9XYKbneoMWcCzfQ,C.Lo Cafe,"39 Bushwick Ave, Brooklyn, NY 11211",40.713577,-73.941176,110,4.5,11211
_AU96YHJM_CgFfw_QzpvAQ,Akrotiri Seafood Taverna,"29-20 30th Ave, Astoria, NY 11102",40.7673866,-73.9227864,23,4.5,11102
KkiYlELDkbSCE_Bx6djTgQ,Dullboy,"364 Grove St, Jersey City, NJ 07302",40.72138,-74.04239,267,4.0,07302
e6IRd3qhCh8VhkFWOJ27mw,Talon,"220 Wyckoff Ave, Brooklyn, NY 11237",40.7010419197088,-73.9143620431423,40,4.0,11237
Ucxhqn56VtC-eYjdNsg7Og,Vitae,"4 E 46th St, New York, NY 10017",40.7555884,-73.9785483,719,4.0,10017
UG7pKdu-NaF-GhzRx3dVkQ,Blue Ribbon Brasserie - Brooklyn,"280 5th Avenue, Brooklyn, NY 11215",40.6741896790347,-73.9823146658759,501,4.0,11215
fsZIYlkhLbZjUpqQtjGeHQ,Canlon's Restaurant,"1825 N Railroad Ave, Staten Island, NY 10306",40.565179,-74.126835,46,4.0,10306
93C1xqdTGHyGtoZ9vwn3KA,Ketch Brewhouse,"6 Platt St, New York, NY 10038",40.7073900260528,-74.0063956752419,52,3.5,10038
5sTcJ4QDxE8ieVz2dLpjtQ,OLMA Restaurant & Bar,"420 Amsterdam Ave, New York, NY 10024",40.7838387,-73.9778271,69,4.0,10024
Z16VudvRJkHtqzqADzCbfw,Rincón Melania,"35-19 Queens Blvd, Long Island City, NY 11101",40.744785,-73.929137,15,4.5,11101
yGQT6OZ-nNIhTKj32wRlmA,Bar Bolinas,"455 Myrtle Ave, Clinton Hill, NY 11205",40.69342,-73.9673,96,4.0,11205
3Ic4C60oSH1cV2jknUXSjQ,The Flatiron Room,"37 W 26th St, New York, NY 10010",40.74452,-73.99049,652,4.5,10010
x_u7DTvA4ypDBrPvVNx1CQ,"Whispers Restaurant, Bar & Lounge","210 W 94th St, New York, NY 10025",40.7933013456452,-73.9722406754357,72,4.5,10025
wo2mD2d2ufdmM5FV0u139w,The Avenue Restaurant,"71-22 Myrtle Ave, Glendale, NY 11385",40.701847,-73.879193,68,4.0,11385
rtD77CWSUh5FVp9kXn_0UQ,Henry at Life Hotel,"19 W 31st St, New York, NY 10001",40.74722,-73.98699,43,4.5,10001
MJP2jGkQB3kPdSDt6fHWHQ,Henry's,"2745 Broadway, New York, NY 10025",40.8007887729421,-73.9682734744612,252,3.5,10025
d9TzxKoePuLkmMaeBEm7UQ,Starr Bar,"214 Starr St, Brooklyn, NY 11237",40.7051384474811,-73.923053896029,25,4.5,11237
9wRlyAndMwK0n1SlzywRjQ,The Family Store,"6905 3rd Ave, Brooklyn, NY 11209",40.63541,-74.02589,141,4.5,11209
kH5RMIaFmd-bekCIhOcqDw,Landmark Tavern,"626 11th Ave, New York, NY 10036",40.763156,-73.996253,236,4.0,10036
8EBOj5bMglNI-jRIQvf6wg,Cheese Grille,"188 Allen St, New York, NY 10002",40.7219115,-73.9886709,443,4.0,10002
JCZTtZBWNZmHe52BLxfmYA,Annie Moore's Bar & Restaurant,"22 E 41st St, New York, NY 10017",40.7523051668379,-73.9803968488586,62,4.0,10017
q6H2tAtasVm44g3K5lAGew,Vida,"381 Van Duzer St, Staten Island, NY 10304",40.62874,-74.0798,52,4.0,10304
sGqKDtizXj3tg9jnAc9FeQ,K Rico,"772 9th Ave, New York, NY 10019",40.76438,-73.9880699,438,4.5,10019
UXVDyIzmO5kmJnlv-HDXLg,Cafeteria,"119 7th Ave, New York, NY 10011",40.740567590122,-73.9980747946,2919,3.5,10011
ciHt5n5rmpby1YcC_6JVrg,Bronx Alehouse,"216 W 238th St, Bronx, NY 10463",40.8847016520226,-73.8994980779851,601,4.0,10463
bRPq-Nmct5bOuOtsu8fC7Q,S'MAC,"197 1st Ave, New York, NY 10003",40.730212,-73.983724,2025,3.5,10003
vYHT1mRQMOGgSYyPGmMo2w,Kitchen At Cobble Hill,"254 Court St, Brooklyn, NY 11231",40.68528,-73.99466,266,3.5,11231
KfHwEsirvgNwqqSSIZ4Kdg,Somm Time,"959 2nd Ave, New York, NY 10022",40.75544,-73.96836,55,4.5,10022
kCdWWxX8P4QQLL_5lh52bg,Castillo Restaurant,"4020 5th Ave, Brooklyn, NY 11232",40.6504199,-74.005,24,4.0,11232
SH1j1nOkHXcC-avHBIWqDw,The Grey Dog - Nolita,"244 Mulberry St, New York, NY 10012",40.7229552925316,-73.9957295673222,475,4.0,10012
7zxV9U7_SJ1npeLCkHUzjg,Yankee Doodle Dandy's,"New York, NY 11121",40.71424,-74.00642,95,4.0,11121
NT2mKx3_kxO9tpjeP2Sv6Q,The Malt House,"206 Thompson St, New York, NY 10012",40.72863,-73.99938,367,4.0,10012
tOn-wEQ06ScrgeU5Ljw7Gw,Alfie's,"800 9th Ave, New York, NY 10019",40.765437,-73.987278,430,4.0,10019
mWS4umRg2AyykyAClMrIRw,The Penrose,"1590 2nd Ave, New York, NY 10028",40.7755334102308,-73.9532487460327,887,4.0,10028
mfdhfn1B4p3cplNa39ADbg,Creamline,"180 7th Ave, New York, NY 10011",40.74274,-73.99698,91,3.5,10011
6vEOMyq9Zb7QVqBecvgY_A,Maysville,"17 W 26th St, New York, NY 10010",40.7442415033062,-73.9897458650818,496,4.0,10010
qMr20iPFYIgk0NdjIzp-BQ,Mas Avos,"536 E 79th St, New York, NY 10075",40.7761542966202,-73.9512280002236,5,5.0,10075
fwH7iD4-xY2ABrlZznP8CA,Quality Eats,"1496 2nd Ave 78th St, New York, NY 10075",40.7725103168192,-73.9554501324892,113,3.5,10075
HnvxdOsae7KIEXNZi04iFQ,Texas Chicken and Burgers,"235 Brook Ave, Bronx, NY 10454",40.807906,-73.9192687,6,5.0,10454
4J2Z8dqPUC9yRpFXBgABkA,Hill Cafe,"17 Putnam Ave, Brooklyn, NY 11238",40.6827780652116,-73.9621102037048,122,4.0,11238
F0xWRSEu-w4pIqFl-c7uIg,The Morgan Dining Room,"225 Madison Ave, New York, NY 10016",40.7493652403355,-73.9817237108946,16,4.0,10016
oLA02lMIfgvbYquvXzkARw,Lillie's Victorian Establishment,"249 W 49th St, New York, NY 10019",40.7614625,-73.9860519,1178,4.0,10019
pMdGxqqo_bJQNwvwj2XpcA,Satyr Grill,"1109 Cypress Ave, Ridgewood, NY 11385",40.6960902,-73.8994532,21,3.5,11385
BhFOYn0nRcugPJM03r447w,Hamilton's,"2826 Fort Hamilton Pkwy, Brooklyn, NY 11218",40.648582,-73.977256,246,3.5,11218
CV34WV9aNsERlQACAJSAOg,Runner & Stone,"285 3rd Ave, Brooklyn, NY 11215",40.67721,-73.985919,237,4.0,11215
5rT-Ggt43WcT0dnANyFXHQ,Valentina's Bar & Grill,"621 Crescent Ave, Bronx, NY 10458",40.8538513,-73.8877893,6,5.0,10458
eSQFh8GZhPXQBL2XZ9i5mg,Royal Coach Diner,"3260 Boston Rd, Bronx, NY 10469",40.87254,-73.85436,2,3.5,10469
5K0b-fEk96xUJCV_5ytNog,Contra,"138 Orchard St, New York, NY 10002",40.719878,-73.989063,243,4.0,10002
k5bGHJbAXDw9g_uP42QqDw,The Highwater,"34-20 Broadway, Astoria, NY 11106",40.76033,-73.92245,99,4.5,11106
WI05doY7Zskp-hfdCODRxQ,Bate Nabaya African & American Restaurant,"860 Melrose Ave, Bronx, NY 10451",40.823753,-73.913856,4,5.0,10451
qmt4lPkK30THRomHbd5EWg,The Fat Monk,"949 Columbus Ave, New York, NY 10025",40.79952,-73.96232,158,4.0,10025
L76e8Iz0orAWab0Nyampyg,Sutton Inn,"347 E 54th St, New York, NY 10022",40.7567013544777,-73.9648072030919,98,4.0,10022
01isnBO1rFO2LTOeNfYl9w,Hillstone Restaurant,"378 Park Ave S, New York, NY 10010",40.7427534,-73.9847308,801,4.0,10010
JI_teX5hC2rvHRbAo9JRTw,Quality Eats,"19 Greenwich Ave, New York, NY 10014",40.73446,-74.00016,324,4.0,10014
YKoQUUrUdE_XHw-ikAkumQ,Sunswick,"35-02 35th St, Astoria, NY 11106",40.7565251,-73.9253989,345,4.0,11106
sHzkRr-86LIzIWy5vTZfzA,Souths Bar & Restaurant,"273 Church St, New York, NY 10013",40.7184229,-74.0048596,191,4.0,10013
oQTe8QrqH3FoBjasH4nMNg,Dynaco,"1112 Bedford Ave, Brooklyn, NY 11216",40.686615,-73.954811,94,4.5,11216
KMrQFZY20m4-Dnu3VGltrg,The Hamilton,"998 Amsterdam Ave, New York, NY 10025",40.8027668786632,-73.9640214206238,102,4.5,10025
qCf1QN11Qdncpqb7PhuyVw,The Ragtrader & Bo Peep Cocktail and Highball Store,"70 W 36th St, New York, NY 10018",40.75059,-73.98628,134,4.5,10018
e4Pdsm59ErXJvFUmXIu9AQ,Kind,"New York, NY 10018",40.760147,-74.003069,2,3.0,10018
P_kbMp5n3WyjINst-omKVA,Clinton Hall,"19 Fulton St, New York, NY 10038",40.70701,-74.00356,123,3.0,10038
R_kM3maXKOn_evtyhwvjgw,Brooklyn Bridge Bistro,"63 Tillary St, Brooklyn, NY 11201",40.69641,-73.9884,23,3.0,11201
nsAU6F2vmdnphmfIa_RuWg,Mable's Smokehouse,"44 Berry St, Brooklyn, NY 11211",40.7211747906766,-73.9569354057312,678,4.0,11211
g3FOPlO-Gp0J4HfjurW74Q,Gourmet Fit,"6819 3rd Ave, Brooklyn, NY 11220",40.63581,-74.02567,119,4.5,11220
RTA_esY_iOwFe3qyNzHeLQ,BIN No. 220,"220 Front St, New York, NY 10038",40.70761,-74.00236,71,4.0,10038
HUSbdxCau6rw1eIyYvdsHQ,The Gather Inn Again,"2718 Gerritsen Ave, Brooklyn, NY 11229",40.5928247988916,-73.9252458686653,28,4.0,11229
lhEzTykkqFz92Vq2uILtyw,The Wren,"344 Bowery, New York, NY 10012",40.7263350655,-73.9920476876,438,4.0,10012
N7Q2g_k38wOUwliyReMRCw,The Dropout,"16702 Rockaway Beach Blvd, Queens, NY 11694",40.57298,-73.85514,3,5.0,11694
kSI-wgcYYfpcHcgDrbKIfg,Sugar Freak,"37-11 30th Ave, Astoria, NY 11103",40.7646298318085,-73.9159499108791,1351,4.0,11103
bWhupxuUj3LTu0aK3CuOtA,Gramercy Ale House,"272 3rd Ave, New York, NY 10010",40.73797,-73.98413,63,4.0,10010
zTxoqf4dRIjWn-CK6T0Agg,The Bounty,"131 Greenpoint Ave, Brooklyn, NY 11222",40.730385,-73.954811,186,4.0,11222
Tgi-rDD3mxFi9uGybZxdaQ,Faun,"606 Vanderbilt Ave, Brooklyn, NY 11238",40.67829,-73.969,87,4.0,11238
PHSsvGDW6Rh2pGWEDTrDew,Death Ave,"315 10th Ave, New York, NY 10001",40.75112,-74.00208,304,4.0,10001
YoFTFQ8EF3Xw8pOCF6k-hw,Le Bon Choix,"652 10th Ave, New York, NY 10036",40.7620099,-73.99351,78,4.5,10036
sDajjybHSYFw8gTVbknPGA,Jack Doyle's Bar & Restaurant,"240 W 35th St, New York, NY 10001",40.752132,-73.991852,243,4.0,10001
gJmJDwrDUHy--3qS9qQFYA,Blackbird's Bar & Restaurant,"41-19 30th Ave, Astoria, NY 11103",40.76341,-73.91335,206,4.0,11103
gOT7hhsGqOsLa91nOLDGxw,Court Street Restaurant & Bar,"61 6th St, Hoboken, NJ 07030",40.74329,-74.02861,231,4.0,07030
6gzQLjzJk25ePm_JS7ZAug,Esme,"999 Manhattan Ave, Greenpoint, NY 11222",40.7332033928175,-73.9549667724914,234,4.5,11222
mlwzynq9ofUHLx2hCL70dQ,The Wooly Public,"9 Barclay St, New York, NY 10007",40.7121984612156,-74.0084869030238,46,4.0,10007
54SrQVVhGcvfuIkFabQ8KQ,P.J. Clarke's,"915 Third Ave At 55th St, New York, NY 10022",40.7589148,-73.9680336,773,3.5,10022
o5HNVvccTdsiGjT4Pubddg,Wallflower,"235 W 12th St, New York, NY 10014",40.7377405,-74.0021002,217,4.5,10014
samBmcA_ysePpw5VYWgxdg,The Castello Plan,"1213 Cortelyou Rd, Brooklyn, NY 11218",40.6403278076802,-73.9666944709866,269,4.0,11218
2O5w-15_AVnnVJEtlWWE_A,Clinton Hall,"601 E 189th St, Bronx, NY 10458",40.85735,-73.88574,75,4.0,10458
SBLoGGk936tFHg0gYSZ-ow,Kent Ale House,"51 Kent Ave, Brooklyn, NY 11249",40.7223892,-73.9593506,135,4.0,11249
oxrSP0i86Fbb2TcpH0U5-Q,Two Door Tavern,"116 N 5th St, Brooklyn, NY 11211",40.71709,-73.95995,425,3.5,11211
FFwDFLVBTQvuacl4l1ODew,Gentleman Farmer,"40 Rivington St, New York, NY 10002",40.7210141970542,-73.9910638332367,240,4.0,10002
szM1B9tHQixNsmTZTfKoWA,Lincoln Station,"409 Lincoln Pl, Brooklyn, NY 11238",40.6726102,-73.9627163,229,4.0,11238
YKfj-CUjgb9xQ1kN_bhNLg,Forgtmenot,"138 Division St, New York, NY 10002",40.714498871349,-73.9915559401866,154,4.0,10002
Esgyg0dRzBQJFMuVSaCYww,As Is NYC,"734 10th Ave, New York, NY 10019",40.7645799,-73.9914759,149,4.0,10019
1z5Nu66M6W8mk5Ap4osZwA,The NoMad Restaurant,"1170 Broadway, New York, NY 10001",40.7449,-73.988482,1297,4.0,10001
zHqDuMznom7CLp2lqV8q0g,Forrest Point,"970 Flushing Ave, Brooklyn, NY 11206",40.70319,-73.93229,270,4.0,11206
Vs2IM_3Hyhh7FrzagM_9cQ,Mar's,"34-21 34th Ave, Astoria, NY 11106",40.7583169449012,-73.9241287461118,212,4.0,11106
jvx3UEV66_Q2x5GnNHGmBQ,Dig Inn,"856 8th Ave, New York, NY 10019",40.7631299,-73.98527,103,4.5,10019
r-b7njQdEuDnK0yqHy5imQ,Divine,"896 Broadway, Brooklyn, NY 11206",40.69777,-73.93715,37,4.0,11206
R2VLXk5qjDLhsP4R8Z9i2A,Jody's Club Forest,"372 Forest Ave, Staten Island, NY 10301",40.63079,-74.10182,33,4.0,10301
g0ELjSBBNR3YMDa1I8l1AQ,99 Rogers,"99 Rogers Ave, Crown Heights, NY 11216",40.67427,-73.95268,71,3.5,11216
zv29TbzPs9-rD5ql0qWw5A,The Shadmoor,"1066 2nd Ave, New York, NY 10022",40.75862,-73.96545,112,4.5,10022
zYYx6zMrdWKJj623Y2ZZXw,Tapanju,"235 E 4th St, New York, NY 10009",40.72346,-73.9827,60,4.5,10009
XoJwcOxazBKvWikQCATS-w,East Flour,"103 Christopher Columbus Dr, Jersey City, NJ 07302",40.71946,-74.04346,14,4.5,07302
pvdhFL_m06xeFvPpU0v2EA,Bill's Restaurant,"985 Wyckoff Ave, Ridgewood, NY 11385",40.696285,-73.904838,23,4.5,11385
t4hGjbQaZtBqDAEoqdCJoA,Richie's Burger Joint,"2665 Broadway, New York, NY 10025",40.7982592975529,-73.9695739619898,69,4.0,10025
3iLPrhNb02n81GdxP_jqgQ,North Square,"103 Waverly Pl, New York, NY 10011",40.73251,-73.99866,270,4.0,10011
s4Mm136q9_2Kq5O_M8QZAg,Northern Soul,"700 1st St, Hoboken, NJ 07030",40.7396,-74.04247,32,4.0,07030
gTCqX_Xw087KP608dZTfjw,The Chelsea Bell,"316 8th Ave, New York, NY 10001",40.7468909665128,-73.9970784187517,57,3.5,10001
9fydXI0fj2s-EmlF7vm8Og,Clay,"553 Manhattan Ave, New York, NY 10027",40.8094002234406,-73.9536950700793,79,4.5,10027
4W0qF6C0KDmGDOc4pR3CkQ,The Spot Mix Grill,"5310 Park Ave, West New York, NJ 07093",40.78193,-74.01243,25,5.0,07093
kDJbzzmCEjFbyDQ-lSygvw,Fresh Salt,"146 Beekman St, New York, NY 10038",40.70707,-74.00244,357,4.0,10038
6AgpmRu1zjO_eNhoMhTE-A,Hard Times,"445 Troutman St, Brooklyn, NY 11237",40.70794,-73.92164,305,4.0,11237
oNP_QmgP_fDBElFq9vA7Og,Mustang Harry's,"352 7th Ave, New York, NY 10001",40.74829,-73.99282,43,4.0,10001
zWem2SAbFc7lIYR2y9DE0g,Harlem Public,"3612 Broadway, New York, NY 10031",40.828717774457,-73.9484412254424,718,4.0,10031
NTwOc9yQ1xl5deeVzZqxfw,Tavern29,"47 E 29th St, New York, NY 10016",40.74431,-73.98394,724,4.0,10016
Nzz7O9jSdfSOaPL5huYcSg,Errigo's,"502 Bay St, Staten Island, NY 10304",40.6298,-74.07682,56,4.5,10304
glpQwpZpOrNpoWSIrPpgng,Shorty's,"229 Flatbush Ave, Brooklyn, NY 11217",40.68131,-73.97513,26,4.0,11217
CEOm_NF7EeDZR4ozRZvCSg,Bedford Falls,"206 E 67th St, New York, NY 10065",40.7661503,-73.9625243,48,4.0,10065
2p4hDkw-USB3Vh5v3g5sBg,Brooklyn Cider House,"1100 Flushing Ave, Brooklyn, NY 11237",40.705461,-73.926551,59,4.5,11237
rsOCso88941m-BFqOtY6MQ,On 14th Street Sports Bar & Restaurant,"30-85 14th St, Astoria, NY 11102",40.76864,-73.93129,8,5.0,11102
E6Y4ICdoqtYkFilRLfrOHA,Ducks Eatery,"351 E 12th St, New York, NY 10003",40.7306252,-73.9846268,535,4.0,10003
00jHmlu0elBhzBsw7Y5pww,Jack & Nellie's,"10825 Ascan Ave, Forest Hills, NY 11375",40.7178794,-73.8410497,587,4.0,11375
lOF3G7_UGLslruiaRTCM1Q,BorinQuenya Restaurant,"5505 4th Ave, Brooklyn, NY 11220",40.6433431,-74.0154664,12,4.0,11220
HnFHxQUSviXVa1FUGR-Hjw,Adella,"410 W 43rd St, New York, NY 10036",40.7594098,-73.9929134,133,4.0,10036
tHW3EwGwai1AiWQ6ZD-wjg,Industry Kitchen,"70 South St, New York, NY 10005",40.7049434740873,-74.0048825740814,336,3.5,10005
Y98a2y3r77l7S4wVS4Vqzg,No5nyc,"35-43 37th St, Long Island City, NY 11101",40.75447,-73.92456,63,4.0,11101
5f3M0k7mTjrKoQFJW-PFzg,Lock Yard,"9221 5th Ave, Brooklyn, NY 11209",40.61726,-74.0294189,275,4.0,11209
Jx3dG_USDDOXZuUaU_EVzg,Tazzina,"102-15 Metropolitan Ave, Forest Hills, NY 11375",40.710534,-73.850067,282,4.0,11375
-7mvJpV-gmOCT0HFNOhMNA,The Brothers Cafe,"3949 43rd Ave, Sunnyside, NY 11104",40.74607,-73.924109,72,4.5,11104
N81_5xlY7dpEqrygi8lVOA,Public Kitchen,"215 Chrystie St, New York, NY 10002",40.7230205730996,-73.9919801428914,115,3.5,10002
3NbhYebjZPjLTWZZyRuhsw,The Winslow,"243 E 14th St, New York, NY 10003",40.7327766418457,-73.9852142333984,408,4.0,10003
NwrqmFGO-utVOG-eeDDuXg,Penelope,"159 Lexington Ave, New York, NY 10016",40.74371,-73.98152,2004,3.5,10016
wJ-MPdFSPUoChucj-r6YxA,Dig Inn,"225 Liberty St, New York, NY 10281",40.71156,-74.01533,130,4.0,10281
zgW7g4RWssKfjdlSE8fZvg,Sweet Afton,"30-09 34th St, Astoria, NY 11103",40.765352,-73.918983,965,4.0,11103
R8V3qK43gbtjgjtIy5zhBw,EDEN Local,"508 W 42nd St, New York, NY 10036",40.75964,-73.99608,84,4.0,10036
MjhI1FiJtiGnQvzYP1zY5g,S3 Sushi | Soju | Sports,"47-34 Vernon Blvd, Long Island City, NY 11101",40.744613,-73.9537639,13,4.0,11101
2RgpeADI0A9U4Gz5lke8cg,Freek's Mill,"285 Nevins St, Gowanus, NY 11217",40.67957,-73.98682,147,4.0,11217
-r0CBmuraX-_ef8jU7Cx2A,Kiwiana,"847 Union St, Brooklyn, NY 11215",40.6747169,-73.9757829,334,4.0,11215
JN39AyYfowCoK5NniL7tCw,The Vanderbilt,"570 Vanderbilt Ave, Brooklyn, NY 11238",40.6796,-73.968447,424,3.0,11238
YLneWqE-Mixh9BCwnS5QBA,Mood Ring,"1260 Myrtle Ave, Brooklyn, NY 11221",40.697725,-73.926887,19,4.0,11221
dv4mMmbCAb7FtUj1Md-K6Q,East Village Social,"126 St Marks St, New York, NY 10009",40.726722,-73.98381,113,4.0,10009
kortq9GFNGvV4ky_rVf88g,Hibernia,"401 W 50th St, New York, NY 10019",40.76365,-73.9890999,147,4.5,10019
nC4HwtW5_nDICBAVPqN9pw,Sagaponack Bar & Grill,"4 W 22nd St, New York, NY 10010",40.7409324645996,-73.9907836914062,200,4.0,10010
Fl8f8jOGyTV9_SqHgbGZbA,Del Frisco's Grille,"250 Vesey St, New York, NY 10080",40.714167,-74.016111,61,3.5,10080
IsexBbtRCOy2qIPPYQh6_w,Michael Anthony,"307 Nelson Ave, Staten Island, NY 10308",40.5422806498665,-74.1454256371426,5,5.0,10308
scjoZtbTQHi35xhAlUm2iQ,L'ADRESSE,"1065 Ave Of The Americas, New York, NY 10018",40.7538691176513,-73.9850637753937,238,4.0,10018
Rgm8BwcoqfIVSl2QSEOhbQ,Craft,"43 E 19th St, New York, NY 10003",40.73818,-73.98866,902,4.0,10003
8AMEjzaPVE8wDcEgI3_OEA,Hemlock,"65 Rivington St, New York, NY 10002",40.72052,-73.9901,28,4.5,10002
584s3OuGN7rVLZDXQ40r7g,Hen Penny - NYC,"1695 Broadway, New York, NY 10019",40.7636615,-73.982852,1,5.0,10019
QGvOaL14mWte55v71i3PIQ,Talde,"369 7th Ave, Brooklyn, NY 11215",40.6657016935431,-73.982548767788,990,3.5,11215
iAE7TKGPMQZV__HUGHjH6Q,PepperJack Grill,"316 Manor Rd, Staten Island, NY 10314",40.6204899,-74.1238,131,3.5,10314
N5xMhepvfbXDS6DL1c55Kw,O'Neill's,"64-21 53rd Dr, Maspeth, NY 11378",40.729004,-73.9005903,125,3.0,11378
T_d-JdVD-DVl4DzWqQk9DQ,View of the World Terrace Club,"144 Washington St, New York, NY 10006",40.7098701,-74.013926,102,4.0,10006
HV8xairb2qct7wSHqNwqXw,Levante,"26-21 Jackson Ave, Long Island City, NY 11101",40.7476347,-73.9417521,94,4.0,11101
R1X1PY1SSCKyFZI6CWJgmA,Love Cafe,"283 Pleasant Ave, St 115, New York, NY 10029",40.7945827440822,-73.9337050382274,122,4.5,10029
N5UY113nNpeKdLPv0cbMjQ,The Wild Son,"53 Little W 12th St, New York, NY 10014",40.74073,-74.00836,270,4.5,10014
ZnhRUBos9FGQZrzbcPn6Vg,O'Hara's Restaurant and Pub,"120 Cedar St, Ste 4, New York, NY 10006",40.7093473589949,-74.0122557367896,304,4.0,10006
euLMYBekVEKt0CMGex5PaQ,Gibson and Luce,"19 W 31st St, New York, NY 10001",40.74722,-73.98699,12,4.5,10001
0p6W9PtbvBkOl7VBmUZciw,Hudson Garden Grill,"2900 Southern Blvd, Bronx, NY 10458",40.865217626397,-73.8814812345422,113,3.5,10458
2YPmpAaue_v1t0tb1PoHWw,The Brass Rail,"135 Washington St, Hoboken, NJ 07030",40.73855,-74.03019,385,3.5,07030
wXCb19BZ1xEcd8JnYh-h3w,Mile 17 Bar & Restaurant,"1446 1st Ave, New York, NY 10021",40.769802,-73.9542,61,4.0,10021
dMaOf8oT95Q5Mw3zAvbOQQ,Emeline's,"373 Lewis Ave, Brooklyn, NY 11233",40.68266,-73.93481,138,3.5,11233
6NEkr-O-vdGjmZr-GpHtVg,Figaro Bistro Bar & Grill,"97 First Ave, New York, NY 10003",40.72635,-73.986226,8,4.0,10003
YxLazl79hS4O_ygHWqM3mg,Lo-Res Bar,"136 Metropolitan Ave, Brooklyn, NY 11249",40.715984,-73.962577,10,4.5,11249
421KUeGiejZVAZYu4QhbCg,The Parlour at The Roger Hotel,"131 Madison Ave, New York, NY 10016",40.7459,-73.984242,9,4.5,10016
ddKmJRZ3D1iS-gbZq03OWQ,Friedman's,"228 W 47th St, New York, NY 10036",40.7595053740559,-73.9854379268717,107,4.0,10036
WqmqQ8c9NivfIRn3sO2KiA,The Ribbon,"20 W 72nd St, New York, NY 10023",40.7765198,-73.9774628,287,3.5,10023
A-ert0jDRBfku9ogyW_mEg,Spice Symphony,"150 E 50th St, New York, NY 10022",40.7558937072754,-73.9715347290039,171,4.5,10022
ui4Hhq2duXIZLuzev9531g,Otway,"930 Fulton St, Brooklyn, NY 11238",40.68274,-73.96388,48,4.0,11238
xwdyPDcF1PifAiXyNnyA5Q,Third Avenue Ale House,"1644 3rd Ave, New York, NY 10128",40.7828,-73.95129,262,4.0,10128
0gndpfi58MSCVjcFaKYWag,Creamline,"75 9th Ave, Chelsea Market, New York, NY 10011",40.7426136986425,-74.0057623780487,217,4.0,10011
WKDdD8Z17-P1XhkyJtDEFA,Johny's Luncheonette,"124 W 25th St, New York, NY 10001",40.7444458007812,-73.9930725097656,737,4.0,10001
CXBiohHdb9smySvW5ZzLxA,All Hopped Up,"229 E 53rd St, New York, NY 10022",40.7573040885704,-73.9682269567692,3,4.5,10022
TVuJO-1J7IQa0nCyGGEd1w,The Halcyon Gourmet,"202 Banker St, Brooklyn, NY 11222",40.7251,-73.95573,25,4.5,11222
3Q4FMHLSTM8sATaEHeZ6Tg,Blanca,"261 Moore St, Brooklyn, NY 11206",40.7050708681994,-73.933581,145,4.0,11206
escMR9M42UsHQIglAz1pJw,Bubba's Bistro,"31-13 Ditmars Blvd, Astoria, NY 11105",40.775832308033,-73.9100879056678,291,4.0,11105
kC6VZfrwFvav9PryA3eRCA,Bar SixtyFive,"30 Rockefeller Plz, Fl 65, New York, NY 10112",40.7591284113218,-73.9796703204086,239,4.5,10112
g6QOBY2bmEw5CKfiZ43egQ,Encore Restaurant,"10007 4th Ave, Brooklyn, NY 11209",40.61256,-74.03366,25,4.5,11209
AqplnJoY5I68hqHx1_gR_A,O'Leary's Publik House,"788 Garfield Ave, Jersey City, NJ 07305",40.7063526,-74.0732076,43,5.0,07305
0PtqrJCFkGZ8W9pEDR1fqA,Union League Club,"38 E 37th St, New York, NY 10016",40.748957,-73.980379,26,4.0,10016
ZtjF2N3eYOjtnI3cES2fpw,Duke Eatery,"300 Park Ave, New York, NY 10022",40.7569688575924,-73.9750746534424,22,4.0,10022
iOo9XFFvV-GJpiOdDbR_hg,Chuck and Blade,"184 8th Ave, New York, NY 10011",40.742974,-73.999854,81,3.5,10011
CexqMejtDRYOx9EH6xsVkA,BKW By Brooklyn Winery,"747 Franklin Ave, Brooklyn, NY 11238",40.673058,-73.956843,99,4.5,11238
TRVWU2c4SzbsgWOo6Dz2Aw,Hunger Pang,"1021 Church Ave, Flatbush, NY 11218",40.6470565795898,-73.9696960449219,229,4.5,11218
2NXw5fPYxXx5-kOa6YWeRA,Av P Coffee Shop,"401 Avenue P, Brooklyn, NY 11223",40.609065268841,-73.9725211819629,10,5.0,11223
77EedCTJY1biWIYSzAulCQ,JG Melon,"1291 3rd Ave, New York, NY 10021",40.77105,-73.95931,1058,3.5,10021
pxlaHNbS-YPhntHMW0DE6A,Pronto Restaurant,"52-03 Metropolitan Ave, Ridgewood, NY 11385",40.7135184985884,-73.9145063912041,16,4.0,11385
ajXcoTsMsSizrmISyuJIPw,Nycstreats,"33 E 47th St, New York, NY 10017",40.7560135,-73.9766866,3,5.0,10017
iYROkn7nIyKHe81AI93IIQ,The Kitchen Sink,"88 2nd Ave, New york, NY 10003",40.726806,-73.988624,65,3.0,10003
Y7cKrhINvxMtYGh5I_V60g,Press 195,"4011 Bell Blvd, Bayside, NY 11361",40.763961,-73.770781,822,4.0,11361
jjLcqGI11ThxAhcftEh1Aw,Fraunces Tavern,"54 Pearl St, New York, NY 10004",40.70344,-74.01135,669,3.5,10004
ka5RaN_-bI_vdCw2QF0S4A,Joyces Tavern,"3823 Richmond Ave, Staten Island, NY 10312",40.54506,-74.16546,46,4.0,10312
9o4y3IqpFDaj8FddJ6oi2A,Clement,"700 5th Ave, New York, NY 10019",40.7616602403771,-73.9752098617798,111,4.0,10019
w2Bt2DkJu7tiX2KzqlO0NQ,Bar Sardine,"183 W 10th St, New York, NY 10014",40.7343842119037,-74.0027010019169,181,4.0,10014
I7sjVCULfFHHKhd-UVFL_w,Spunky Fish & Thing,"1077 Rutland Rd, Brooklyn, NY 11212",40.6642,-73.92428,4,4.0,11212
h--B7M-Sfs1Y8hhlPay0Qw,My Belly's Playlist,"218 West 35th St, New York, NY 10001",40.751792,-73.991027,32,4.0,10001
oBAxfAeF6OBukPg3WLmiRg,Treadwell Downtown,"301 S End Ave, New York, NY 10280",40.7102746,-74.0164863,72,3.5,10280
EegEULbC3qoMA-FaEjivtA,Barbuto,"775 Washington St, New York, NY 10014",40.7377203192966,-74.0080020711638,815,4.0,10014
oGsyKk43d7Jc4wN7r3Wvxg,Jimmy's Diner,"577 Union Ave, Brooklyn, NY 11211",40.7177,-73.952445,684,4.0,11211
pVD330c6CmzXZ0TCt2Bv5Q,"Atwood, Kitchen & Bar Room","986 2nd Ave, New York, NY 10022",40.756157,-73.967239,168,3.5,10022
s3jou_L_LVYGkNHiuhjlew,Boucherie - West Village,"99 7th Ave S, New York, NY 10014",40.7329177,-74.0030212,430,4.5,10014
Kd_T6_srwhHT7ydql27H7Q,Proper West,"54 W 39th St, New York, NY 10018",40.7526130492966,-73.9848813489212,281,3.5,10018
gLyCmWWmqvg2SUG4DBgtWA,Family Corner Restaurant,"2102 31st St, Astoria, NY 11105",40.7779502868652,-73.9089813232422,192,4.5,11105
_0w7WPVj_sFMDbaj2KDreg,Burgers N' Shakes,"264 Bleecker St, Brooklyn, NY 11237",40.69923,-73.91705,29,3.5,11237
B2EVXQCqfzludPiWWuZ8ag,Simon & The Whale,"23 Lexington Ave, New York, NY 10010",40.7395063432542,-73.9845356717706,27,4.0,10010
HDDBpOKpKqRza-IhiE4CTw,Bareburger,"149 Court St, Brooklyn, NY 11201",40.68921,-73.99245,310,3.5,11201
3u4BTgNR7WfCLmeZemc_Gg,The Anchored Inn,"57 Waterbury St, Brooklyn, NY 11206",40.7091531,-73.9372291,132,4.0,11206
NVp1S29NLR573Lc4ZvICKw,Forest Hills Station House,"106-11 71st Ave, Forest Hills, NY 11375",40.7197971911827,-73.8451440959871,893,4.0,11375
fj0znZr-YAIPu2-Msyp8NA,Brooklyn Pub,"689 6th Ave, Brooklyn, NY 11215",40.66059,-73.99042,77,3.5,11215
uTS2GevPXqsFKMgdpp5Txw,Friedman's,"1187 Amsterdam Ave, New York, NY 10027",40.8084415644407,-73.9598026871681,253,3.5,10027
Tx8cCaTFV42YZveTMYOo0g,Brick Oven Bread,"199 Brighton Beach Ave, Brooklyn, NY 11235",40.5764742,-73.9675665,9,4.5,11235
sB_ePFY5ICtqGD7U0b_K6Q,Visit Cafe,"1739 W 7th St, Brooklyn, NY 11223",40.60495,-73.98,4,5.0,11223
5mCpnWF5W6zJ4esmxg7hsg,Norman,"29 Norman Ave, Brooklyn, NY 11222",40.7246841,-73.9548224,58,4.0,11222
tRZcEKBNNwiZw1_Px_POag,Smith and Mills,"71 N Moore St, New York, NY 10013",40.7201345264912,-74.0098889172077,259,4.0,10013
wMXitsVNyiA_yJYhvVI71Q,The New Amity Restaurant,"1134 Madison Ave, New York, NY 10028",40.77984,-73.95986,126,3.5,10028
KN4HGdN2PamPSYwk339Zmg,Blackstone Bar & Grill,"3713 Riverdale Ave, Bronx, NY 10463",40.887361171014,-73.9071422050018,59,4.0,10463
wsbDdHJFdD-8vFmfYYGBOw,G-Knows Cheesesteaks,"1310 Forest Ave, Staten Island, NY 10302",40.62614,-74.133631,96,4.5,10302
8lHTKVJyiK9V8WiJq9-khQ,Midwood Flats,"577 Flatbush Ave, Prospect Lefferts Gardens, NY 11225",40.6596512,-73.9603844,219,4.0,11225
H26qMBb0OFNn2xmSTM1Phw,Kings of Kobe,"790 9th Ave, New York, NY 10019",40.764904,-73.9876841,154,4.5,10019
ZCfqAtpASbibf_YaU1rIpw,The Grafton,"126 1st Ave, New York, NY 10009",40.7271881103516,-73.9851989746094,48,4.0,10009
3R-S958SenPaaveuPzSN9g,Le Paddock,"1235 Prospect Ave, Brooklyn, NY 11218",40.65295,-73.97588,254,4.0,11218
XEcN3K7gIu4yC8wGB4zPjw,YN,"227 Mott St, New York, NY 10012",40.7224497,-73.9953034,158,4.0,10012
YARIb8L3uOo3fECJP2Pjlg,Slide Bar-B-Q,"52-75 65th Pl, Maspeth, NY 11378",40.7318732740954,-73.9000609869539,472,4.0,11378
57c2ImG7W3zamMOoimsBHg,Bridie's Bar and Grill,"63-28 Woodhaven Blvd, Rego Park, NY 11374",40.72354,-73.86903,69,3.5,11374
q1j4Xgq0_myV0hzgTZ2nkg,Evodio's Place,"222 Clinton Ave, New York, NY 11205",40.6913531760712,-73.9687436216104,2,5.0,11205
Vyq_AKX1k7M8CLH4Qq1maA,Del Frisco's Grille,"221 River St, Hoboken, NJ 07030",40.7384614951291,-74.0275143831968,267,3.5,07030
uuHujhrkVQdS8XVSGWW2mA,Cebu Bar & Bistro,"8801 3rd Ave, Brooklyn, NY 11209",40.62186,-74.031383,537,3.5,11209
EMPeppCdv5WbbeWjL7Dyvg,Trackside Bar & Grill,"61 New Dorp Plz N, Staten Island, NY 10306",40.573701,-74.117709,6,4.0,10306
q1uIqB8PvyCCX8TajaRYBg,The Little Owl,"90 Bedford St, New York, NY 10014",40.7323808291402,-74.0053009986877,1171,4.0,10014
Lcz6apUnwH7pceOLaVB6-g,Flippin Chicken,"53 6th Ave, Brooklyn, NY 11217",40.68116,-73.97421,35,4.0,11217
7szsAtxOkGJ2ady3Qx7v4w,The Hideaway Seaport,"22 Peck Slip, New York, NY 10038",40.7080634,-74.002083,54,4.0,10038
VgN7z58EIHmxZ-l73WOz7w,Sisters,"900 Fulton St, Brooklyn, NY 11238",40.6828717,-73.9651809,203,3.0,11238
pfmAcS-g6SiNG0KlLvrqnA,Beauty & Essex,"146 Essex St, New York, NY 10002",40.72037,-73.98677,2818,4.0,10002
1huzNAV8qnJYsnNco5XL5Q,Frank's Luncheonette,"365 Smith St, Brooklyn, NY 11231",40.67928,-73.99539,6,4.5,11231
f-sL-VgQzte0StcqI3KkJw,West Bank Cafe,"407 W 42nd St, New York, NY 10036",40.7586255669594,-73.992970213294,216,4.0,10036
Y3d3m6ut-7oTQ4lFfnPvXA,Blake Lane,"1429 Third Ave, New York, NY 10028",40.77532,-73.95621,237,4.0,10028
PfKFF97l-N9eBEkgcFkD9w,French Epi,"123 Greenpoint Ave, Brooklyn, NY 11222",40.730349,-73.955203,47,4.0,11222
mp7YQdBWIHqmJoZlr-K32g,Blackwells Pub And Restaurant,"150 E 47th St, New York, NY 10017",40.7541938,-73.9730946,74,3.5,10017
LX6h_ZSXbepENLa3x_Zdmw,Keith's Grill,"12301 Roosevelt Ave, Citi Field, Flushing, NY 11368",40.7548904,-73.845192,12,4.5,11368
xn0g_LqMcVACrWuox5GF1g,Dominie's Hoek,"4817 Vernon Blvd, Long Island City, NY 11356",40.743537902832,-73.9535446166992,235,4.0,11356
h3kZr9KVuzB9JKJCkWZjGw,The Garden Grill,"206 E 52nd St, New York, NY 10022",40.756649017334,-73.9694366455078,4,4.0,10022
XvcRtA3pD6gpICLsdsQVbA,Tavern62 By David Burke,"135 E 62nd St, New York, NY 10065",40.76447,-73.96708,95,4.0,10065
4SK9aWKC-Qwk-cqS2dWbfw,KebabNgrill,"775 Bergen Ave, Jersey City, NJ 07306",40.7259164,-74.0678749,5,5.0,07306
M85t-iOAbMpO9mVIKAgwMw,Le Garage,"157 Suydam St, Brooklyn, NY 11221",40.6993863968861,-73.9265948743181,97,4.0,11221
uXbm5anCKrg_wmzIwEOR7g,Eugene & Co,"397 Tompkins Ave, Bedford-Stuyvesant, NY 11216",40.6838314980268,-73.9439535140991,164,4.0,11216
W3aQdTf2zob3_Bn-sqRLAg,Legends Bar & Grill,"7104 35th Ave, Jackson Heights, NY 11372",40.750448,-73.89472,95,4.0,11372
FscXu9Lut9UA8ItjPY8WIA,Mulberry & Vine,"55 W 27th St, New York, NY 10001",40.74527,-73.99035,90,4.0,10001
zIpYFLBoSF8qyAUnkLeH8A,Latin Bites,"419 E 70th St, New York, NY 10021",40.7660942077637,-73.9555892944336,51,4.0,10021
3axYlGbF2M-rHjz0uhKFcg,Whitmans Hudson Yards,"331 10th Ave, New York, NY 10001",40.75172,-74.0015899,71,4.0,10001
d8rjBRM8etCFhG5XzzvoGA,Palacios Cafe,"504 39th St, Brooklyn, NY 11232",40.6510937958956,-74.0037050843239,10,5.0,11232
m2fe2Jgb4U3shkoRCA2jqA,Tasty Bites of New York,"1456 Saint Johns Pl, Brooklyn, NY 11213",40.67026,-73.93011,17,3.5,11213
WKxcpJ7bmh25PtA_rMpkBg,The Diamond,"43 Franklin St, Brooklyn, NY 11222",40.726753,-73.957511,101,4.0,11222
XTLV-dDxS27AmY7I9Er68Q,Extra Fancy,"302 Metropolitan Ave, Brooklyn, NY 11211",40.7144643419191,-73.9579174570699,303,3.5,11211
3xTQT7qjZJIxc-eBiFMerQ,1803,"82 Reade St, New York, NY 10007",40.7154487,-74.0072371,75,4.5,10007
Lw044EfH1h3XhUhri3ExfA,BLACKBARN,"19 E 26th St, New York, NY 10010",40.7431036278527,-73.9870538457459,365,4.0,10010
82odHh211DgOSBWtewUYOg,Tree House,"417 Marcus Garvey Blvd, Brooklyn, NY 11216",40.682826,-73.937713,76,4.0,11216
QS7LomUJFfx9LufSx4RVvQ,Sea Witch,"703 5th Ave, Brooklyn, NY 11215",40.66082,-73.993538,246,4.0,11215
a5-ogV7bxhTxq64HNinByA,Pop's Restaurant,"8522 Jamaica Ave, Woodhaven, NY 11421",40.6925333272552,-73.8582141378815,64,3.5,11421
i1fs2DRTIoKy1sNr3Gx-5g,Vibes,"143-06 Liberty Ave, Jamaica, NY 11435",40.6920219729081,-73.8093984872103,124,4.0,11435
ohOXikd87wCxzJXKPx7nGg,Carthage Must Be Destroyed,"222 Bogart St, Brooklyn, NY 11206",40.711471,-73.935062,97,4.0,11206
KCUu9D9SJDi6e2uY3_d5jQ,Angie's Breakfast Spot,"1637 Broadway, Brooklyn, NY 11207",40.6851692,-73.9139328,107,3.0,11207
ZXQrskaUKj4_5jgFdBnD_w,Troost,"1011 Manhattan Ave, Brooklyn, NY 11222",40.73348,-73.95496,77,4.0,11222
CCuRcMro9fxUARlWMVtFPA,Vinus and Marc,"1825 2nd Ave, New York, NY 10128",40.7834125,-73.9479571,217,4.0,10128
XpYm_l-zKI3Rl4E8WODIDA,The Levee,"212 Berry St, Brooklyn, NY 11211",40.7163303847776,-73.9617204666138,383,4.0,11211
oCeDS1HexV3bWSJLxmjqXQ,Onieals Grand Street,"174 Grand St, New York, NY 10013",40.71971,-73.99785,292,4.0,10013
hUYAAlGz2VsOKa0zXQr2dA,Hyacinth's Haven,"2374 Adam Clayton Powell Jr Blvd, New York, NY 10030",40.8177749639411,-73.9420940726995,113,4.0,10030
_nVQz6zVQq-T78VLu2nh5Q,Tilly's Bklyn,"1223 Bedford Ave, Brooklyn, NY 11216",40.681525,-73.953258,25,4.0,11216
JCi1hh39jwOY7-TI0DHOxg,718 Brooklyn Diner,"206 Kent Ave, Ste B, Brooklyn, NY 11211",40.71794,-73.96465,2,3.5,11211
ctY8x9aRmGPiQ7gvv8ZNcg,O'Sullivan's Bar & Grill,"8902 3rd Ave, Brooklyn, NY 11209",40.62131,-74.03212,33,4.5,11209
L7_siqDfU4-ZA17YtA-SBg,SilverFactory,"270 South 5th St, Brooklyn, NY 11211",40.70933,-73.95854,50,4.5,11211
BvnEhQ_8Db95Kf0ZGa4s7w,JG Melon,"89 MacDougal St, New York, NY 10012",40.7290891,-74.0014326,146,3.5,10012
77-Sk9wXLi5Ii5M3Drf4rQ,Battersby,"255 Smith St, Brooklyn, NY 11231",40.68341,-73.992734,285,4.0,11231
6Ct7OeTRn4caY9g0swFBsw,La Contenta,"102 Norfolk St, New York, NY 10002",40.71873,-73.98691,580,4.5,10002
pBHe2iBwoA60q_fLuz1WMA,Alchemy,"56 5th Ave, Brooklyn, NY 11217",40.681381,-73.977386,412,3.5,11217
ED1MeTxK9dohGPA6DKslQw,Slimak,"4110 4th Ave, Brooklyn, NY 11232",40.65143,-74.00787,89,4.5,11232
zDtocZreqOXZAPWFJdrfig,Buffalo's Famous,"773 Coney Island Ave, Brooklyn, NY 11218",40.6386879,-73.9684367,168,4.0,11218
RblOaX5732Y6r1OtVoHOVA,Sugar Hill Disco & Restaurant,"609 Dekalb Ave, Brooklyn, NY 11216",40.6913953274488,-73.9515904337168,2,3.5,11216
xdMdBVzffvtuT22sMbdh3A,Sedona Taphouse,"One Towne Ctr, 679 Anderson Ave, Cliffside Park, NJ 07010",40.82785,-73.987,40,4.5,07010
S4Euw4DYSqeU4KcteFXqHg,The Little Beet Table,"333 Park Ave S, New York, NY 10010",40.74116,-73.98545,391,4.0,10010
fgtw4swOHXEFwZpBCG05rQ,Black Iron Burger,"245 W 38th St, New York, NY 10018",40.75427,-73.9903099,628,4.0,10018
v4d2TBqxMmNzWNvShkvRrA,FREEHOLD,"45 S 3rd St, Brooklyn, NY 11249",40.7136054,-73.965905,364,4.0,11249
FWjl6BrMie6H78OSWJG5Pg,Bareburger,"313 W 57th St, New York, NY 10019",40.7672653198242,-73.9834594726562,219,3.5,10019
VP_HZr_j0dXKd80lUBfsyg,The Wicked Monk,"9510 3rd Ave, Brooklyn, NY 11209",40.616988,-74.034023,174,4.0,11209
cn4pmndnUTXEJ5N-4hTKOw,The Rock,"91-17 Liberty Ave, Ozone Park, NY 11417",40.6803106,-73.8471142,12,4.0,11417
fV1BKHz49jEMPWh6r7pnlg,Jackson Gyro,"85-30 37th Av, Jackson Heights, NY 11372",40.7501154616081,-73.8807807862759,27,4.0,11372
3lLBRLbXAIgd1yZgWgnfeg,Dutch Kills,"27-24 Jackson Ave, Long Island City, NY 11101",40.747615,-73.940159,674,4.0,11101
SF2G4QfcSV03sMCSsv5s2g,The Cellar,"900 Broadway, New York, NY 10003",40.73889,-73.9897,591,4.0,10003
WYC5bDFrwYKsc36w3SWfUQ,Krazy Pizza & Wings,"1784 Broadway, Brooklyn, NY 11207",40.68218,-73.90974,1,2.0,11207
eSyYRxNDQoOundKSUqRosw,The Daisy,"1641 Second Ave, New York, NY 10028",40.77741,-73.952434,178,3.5,10028
QRbD99HVMffeto7_Hq67CQ,Korzo,"667 5th Ave, Brooklyn, NY 11215",40.66199,-73.99238,379,4.0,11215
TBwHQitNU0R_xVXsISvHJA,Dorian Gray Tap and Grill,"205 E 4th St, New York, NY 10009",40.72404,-73.98375,130,4.0,10009
a1M98M-JNpWaY4NmRDxqhg,Rove,"72-27 Austin St, Forest Hills, NY 11375",40.7191490465402,-73.841836117208,151,4.0,11375
oLg2HxLYChgvMRTK5ZSdKQ,Kurant,"1091 2nd Ave, New York, NY 10022",40.759748,-73.965299,151,4.0,10022
ZBrYU1OA8jT1wfPsH6UwYQ,Dark Side of the Moo Cafe,"52 Bowers St, Jersey City, NJ 07307",40.7460460066795,-74.0446295589209,144,4.5,07307
nHZnOVms6-h7PwU481DFZQ,Pj  Restaurant & Bakery,"1339 St Johns Pl, Brooklyn, NY 11213",40.670922,-73.934,3,3.5,11213
fc8op9vARoRwfTSXzs4ShQ,The Green Table,"75 9th Ave, New York, NY 10011",40.7424814823856,-74.0058920192666,522,4.0,10011
XJxoBc_3vvDiCCJViLNfJg,Dianne & Elisabeth,"644 10th Ave, New York, NY 10036",40.76177,-73.99359,198,4.5,10036
PLOVI6TMYnnRZthIiaW6Rg,George's,"753 Coney Island Ave, Brooklyn, NY 11218",40.6388166,-73.9684775,90,4.0,11218
VrwwIxnK06PPZJIli4B-bA,Greenburg Bodega,"236 N 12th St, Brooklyn, NY 11211",40.71917,-73.9529,5,4.0,11211
DLnn2qw-KJAmazB-hMmSEw,The Hill Bistro,"3541 Riverdale Ave, Bronx, NY 10463",40.8863067063563,-73.9074443768295,57,4.5,10463
GowhAKIYFB6RnowJz7OS5g,Angelicas Coffee Shop,"424 Church Ave, Brooklyn, NY 11218",40.644123,-73.975848,34,4.5,11218
ZNAOPaNS6U3h_LgRF7Eu_A,Project Brunch,"616 Forest Ave, Staten Island, NY 10310",40.6298312,-74.1096512,43,3.5,10310
Ur9wsKwGEDG2nT8t3jv8Ag,The Gem Saloon,"375 3rd Ave, New York, NY 10016",40.74133,-73.98098,102,4.0,10016
UA2M9QFZghe-9th2KwLoWQ,Burger & Lobster,"39 W 19th St, New York, NY 10011",40.74016,-73.993372,4285,4.0,10011
cBC55mBdY_1Zj7dfVeWWQg,Bar Basic,"71 7th Ave, Brooklyn, NY 11217",40.67518,-73.97476,33,4.0,11217
F9WW1mbkhQUSrN5l5XUd-g,The Low Post,"1452 Fulton St, Brooklyn, NY 11216",40.679778,-73.942754,16,4.5,11216
DU_DMCalguwdsnmLOJX3mg,La Cigogne,"215 Union St, Brooklyn, NY 11231",40.68348,-73.99929,292,4.0,11231
968r2kMB3ZWkyZxOm4XoRw,Copper Kettle Bar & Restaurant,"5024 Skillman Ave, Woodside, NY 11377",40.7460850008934,-73.9138449996237,127,4.0,11377
xd7ioU33jkwx0hQ3kUNIOg,The Double Windsor,"210 Prospect Park W, Brooklyn, NY 11215",40.660629,-73.980552,376,4.0,11215
EYH4FiA2phvYg73Jjw1KSA,Friend of A Farmer,"77 Irving Pl, New York, NY 10003",40.73695,-73.98677,1104,3.5,10003
cRyZA1k3nvqj_0s_kr7HGA,107 West Restaurant,"2787 Broadway, New York, NY 10025",40.8026581,-73.9680786,85,3.5,10025
BnSeJ9yRfJ09RoQ0euR34A,Trufa Restaurant,"3431 Broadway, New York, NY 10031",40.82315,-73.95318,259,4.0,10031
wouDDTacUIBaRp8YGCFTsA,Colonie,"127 Atlantic Ave, Brooklyn, NY 11201",40.6909,-73.9958,506,4.0,11201
njDA4ALbcnjLloNC_y0E9w,Gantry Bar & Kitchen,"47-02 Vernon Blvd, Long Island City, NY 11101",40.7453953419365,-73.9532279223204,88,3.5,11101
xJ25KJSMBPC1xi-qhrVF7A,Li Greci's Staaten,"697 Forest Ave, Staten Island, NY 10310",40.629758,-74.111992,30,4.0,10310
4DAZkjChkyQxgiOZt6UJmQ,Daly Pie,"665 Vanderbilt Ave, Brooklyn, NY 11238",40.6769905090332,-73.9687347412109,89,4.5,11238
-g65PxVQmh3U8dKUbz1Upg,Santa Salsa,"234 Starr St, Brooklyn, NY 11237",40.705553,-73.922343,51,4.5,11237
PqqnNrUtU7XTKQvUM4cyqQ,Bar Verde,"65 2nd Ave, New York, NY 10003",40.7260849061034,-73.9897361397743,68,4.5,10003
aZ9N4cUBTp3nNaWAeoSbzA,Dig Inn,"1297 Lexington Ave, New York, NY 10128",40.78029,-73.95478,95,4.0,10128
v8_MaF5d2u5qZ6evINBsig,Coarse NY,"306 W 13th St, New York, NY 10014",40.73913,-74.00363,132,4.5,10014
yo5eVHQeB3T95Vo04X62VA,American Cut Steakhouse Midtown,"109 E 56th St, New York, NY 10022",40.76081,-73.97034,157,3.5,10022
aMcH8VlXtEGnty-weP1IAA,The Garden,"57 E 57th St, Four Seasons Hotel New York, New York, NY 10022",40.7621879,-73.9716063,28,3.5,10022
BI2PbVOOGLnkgcpbWg3_Gw,Maxwell's Restaurant Bar,"259 Kingston Ave, Ste A, Brooklyn, NY 11213",40.6708771845998,-73.9420050073016,8,4.0,11213
5mJgmAgKpTbCDdpVs7OFxQ,Ted's Corner Tavern,"523 3rd Ave, New York, NY 10016",40.7462,-73.9774599,160,4.5,10016
puIxzUYl8hhVfWJRaMsZcA,The Mercer Kitchen,"99 Prince St, New York, NY 10012",40.72481,-73.99876,1405,3.5,10012
4Objcs7HXSGuzpb0SOa-Jw,Blue Hill,"75 Washington Pl, New York, NY 10011",40.7320640251595,-73.9996931018524,870,4.5,10011
l_jZX0IQqHzCwC_7KcKS7A,The Owl Farm,"297 9th St, Brooklyn, NY 11215",40.669616,-73.986601,175,4.5,11215
eMMF_kyHQIrX_An67wYcpA,Griff's Place,"704 New Dorp Ln, New Dorp Beach, NY 10306",40.5657874792814,-74.1004322469234,40,4.5,10306
NqFXD7bZlA5xvFGxXp3eog,Genuine Roadside,"600 11th Ave, New York, NY 10036",40.76234,-73.99695,220,4.0,10036
Ziqm5UwyCy3kATJVYYmANw,Clinton Park Cafe,"274 Hall St, Brooklyn, NY 11205",40.69004,-73.96538,68,4.0,11205
y64lCrHGTsrRuDmhoUA0nw,Niall's,"218 E 52nd St, New York, NY 10022",40.75653,-73.96909,113,4.0,10022
CfOBb6NU2awo8xclJpKU3g,Chela,"408 5th Ave, Brooklyn, NY 11215",40.67032,-73.98569,74,4.5,11215
VUozVuTQ4Qq4Uo9lb4EIJg,Crazy Annie's,"3910 Broadway, New York, NY 10032",40.83807,-73.94143,120,3.0,10032
5UxJoqkdYrUEjArx8YITMw,Atlantic Grill,"49 W 64th St, New York, NY 10023",40.7720441790118,-73.9814548431266,495,4.0,10023
rQpO1Eie_zmeAOQ9s-T0sQ,Hole in the Wall,"15 Cliff St, New York, NY 10038",40.70837,-74.00563,277,4.0,10038
hiTfA7vnxDSLv77nl6UQXQ,St. Anselm,"355 Metropolitan Ave, Brooklyn, NY 11211",40.7143299,-73.95604,712,4.0,11211
sBXQbJIP8TaV5PrMKPb2aQ,The Millstone Tavern,"24-03 41st Ave, Long Island City, NY 11101",40.752693,-73.939499,14,4.0,11101
5ghrfSMoy3HKtPxwyV_F0g,The Half Pint,"76 W 3rd St, New York, NY 10012",40.72946,-73.99851,397,3.5,10012
dzlhiEg7nE49iReUC10w_A,Jack the Horse Tavern,"66 Hicks St, Brooklyn, NY 11201",40.6999740600586,-73.993782043457,337,4.0,11201
os09iVkYkzIg9G1xEIepiA,Momofuku Nishi,"232 8th Ave, New York, NY 10011",40.7443479,-73.9988054,390,4.0,10011
wQGC93ETmivIlCbxLuAVcA,St. Mazie,"345 Grand St Williamsburg, Brooklyn, NY 11211",40.71263,-73.9558,163,4.0,11211
xnw88LhmiI7_ktRTVYbESw,ZuriLee Restaurant,"755 Flatbush Ave, Brooklyn, NY 11226",40.654557,-73.959409,181,4.5,11226
TOY_If66a2n0zLNNrH-wag,Fulton Ale House,"1446 Fulton St, Brooklyn, NY 11216",40.67991,-73.94296,27,4.0,11216
bJdS98j_HTfyg-xUlu6V5A,Dark Horse,"17 Murray St, New York, NY 10007",40.713718,-74.008036,363,4.0,10007
CAXzWJyV2UzYMAImM_YkWA,The Grill,"99 E 52nd St, New York, NY 10022",40.7586374,-73.9732412,87,4.0,10022
az4tZj2pFMBCy-X84cQXxA,Windy City Ale House,"7915 3rd Ave, Brooklyn, NY 11209",40.628039,-74.028829,109,4.5,11209
LmjIvh6gRGzxFBI99doR9w,Liberty Prime Steakhouse,"111 Montgomery St, Jersey City, NJ 07302",40.7168985,-74.0399027,282,4.0,07302
bk_V-OzTqPMB1jMjiF_fXA,Rouge Tomate Chelsea,"126 W 18th St, New York, NY 10011",40.7401657104492,-73.9962997436523,97,4.0,10011
80jmHsdVmeYxaoAHaegKyQ,Pier 66 Maritime,"W 26th St, Hudson River Park, New York, NY 10010",40.752197,-74.009167,44,3.5,10010
7qAHwsaiiK2bh404pugjNw,The Ainsworth - East Village,"64 3rd Ave, New York, NY 10003",40.73138,-73.98902,14,3.5,10003
i34wlziIjT8lHgUN1o0ToQ,The Shakespeare,"24 E 39th St, New York, NY 10016",40.7506062,-73.9801755,303,4.0,10016
gwyxG4w7DjwD02lzq4Pt8w,Bareburger,"251 E 52nd St, New York, NY 10022",40.75634,-73.96786,142,3.5,10022
Cndh8_bW8NAwSV3neNRUKQ,Essence Bar,"1662 Atlantic Ave, Brooklyn, NY 11213",40.6775607702948,-73.9357138134918,52,3.5,11213
QlZNc5HhxtuEWUQSYf7JxA,K & A,"66-48 Myrtle Ave, Glendale, NY 11385",40.70122,-73.88652,7,4.5,11385
e2DBROySYB4sySdIvQjA2g,Hooked on 12th,"1123 8th Ave, Brooklyn, NY 11215",40.66397,-73.98053,182,3.5,11215
s5nPO911cYB2chdwqSqT9g,La Nonna Ristorante & Bar,"184 Kent Ave, Brooklyn, NY 11249",40.718468787527,-73.9639185527139,217,4.0,11249
w7zQ47EyJ6R7K_TEWZnInA,Spring Streets Finest Deli,"322 Spring St, New York, NY 10013",40.72589,-74.0092899,7,4.0,10013
YgQ1AVY9JLSMjSRX3Hzj1g,LIC Market,"21-52 44th Dr, Long Island City, NY 11101",40.74745,-73.94552,679,4.0,11101
ryvBsB9FrBBZDak87iGS1w,The Sea Fire Grill,"158 E 48th St, New York, NY 10017",40.7547012104496,-73.972255513072,768,4.5,10017
dSwUPtfJSbqgqfSzVNqDrg,Palace Chicken & Grill,"44-45 21st St, Long Island City, NY 11101",40.7482029,-73.947016,18,4.0,11101
ZtCD7e_LlW-pwEUY6bvusQ,Irish Haven,"5721 4th Ave, Brooklyn, NY 11220",40.641891,-74.016845,65,4.0,11220
FJfKIbA-WyV4AiucX8i5hg,Molly's Milk Truck,"214 Knickerbocker Ave, Brooklyn, NY 11237",40.70326,-73.9264199,39,4.5,11237
BNsKXLDL0pM_IaAR_LR7bw,The Hamilton Inn,"708 Jersey Ave, Jersey City, NJ 07302",40.7289398377141,-74.0446714764976,609,4.0,07302
ORLEaDESAXztvS5yYYW0oQ,Living Room Restaurant & Lounge,"178 Ave U, Brooklyn, NY 11223",40.596309,-73.977697,99,4.0,11223
skN-mgnOezFQr9YNh5G5TQ,Lolita's Kitchen,"1364 Lexington Ave, New York, NY 10128",40.7824207446896,-73.9534502033954,61,4.0,10128
xfpq6PpkYLAwIeFWQVkiGg,Maxwell's Bar & Restaurant,"59 Reade St, New York, NY 10007",40.7147585,-74.0064063,102,4.0,10007
I-5p67rFCMwChxsG4d69Jw,Subs N Stuff,"624 5th Ave, Brooklyn, NY 11215",40.66343,-73.99166,39,4.5,11215
TikAlBfPzWZQ9h5yk8Mmdg,Cronin & Phelan's,"38-14 Broadway, Astoria, NY 11103",40.7589,-73.91941,179,4.5,11103
WI_AYZSW8ds1GjFq3PQJRA,Satis Bistro,"212 Washington St, Jersey City, NJ 07302",40.7144521915461,-74.037669933778,545,4.0,07302
_HBpi2PIG8Zxz01Pr41MIw,The Shady Lady,"34-19 30th Ave, Astoria, NY 11103",40.765619,-73.9181399,615,4.0,11103
0GeWlp7_SBsKBKUa10QBIg,August,"791 Lexington Ave, New York, NY 10065",40.76366,-73.96682,132,4.0,10065
xuxcE7fTiSTtYMgUoiXmow,Dumbo Kitchen,"108 Jay St, Brooklyn, NY 11201",40.7016644,-73.9869269,273,2.5,11201
ys6rqS7Cr1IZ2kB1TNYE4w,Sauvage,"905 Lorimer St, Brooklyn, NY 11222",40.72356122013,-73.9518526761375,153,3.5,11222
6oH3qLZrBEeSp35ols195g,The Deep End,"1080 Wyckoff Ave, Queens, NY 11385",40.6943930345841,-73.902355909787,16,4.5,11385
TK1rbgBEPQWyxF4pu973oQ,Chris's Restaurant,"1866 86th St, Brooklyn, NY 11214",40.60617,-74.00116,65,4.0,11214
0hoKHSlhmqr0_5a1KD67AQ,Create,"29-21 Ditmars Blvd, Astoria, NY 11105",40.77696,-73.91092,159,3.5,11105
5VfF4cByb-j9E-Eex1l46w,Cooper's Union,"104 Hudson St, Hoboken, NJ 07030",40.7375282,-74.0300462,136,4.0,07030
7y7E2wavr-HBwEmq2snMLw,Saxon + Parole,"316 Bowery, New York, NY 10012",40.72521,-73.99247,677,4.0,10012
9l5KqSTju9-yX8qmqnNkwg,Archie's Tap & Table,"536 City Island Ave, Bronx, NY 10464",40.8531112670898,-73.7894973754883,71,4.5,10464
Jy6qxXks0w5Wmurzu7rmBQ,212 Burgers,"212 Prospect Park W, Brooklyn, NY 11215",40.6604826215064,-73.9806463123032,49,4.5,11215
b2naaHiaR57Hm6JZG0njPg,Draught 55,"245 E 55th St, New York, NY 10022",40.758377,-73.966515,307,4.0,10022
qgPYGl1Nuie2XBF1YqJHSA,The Market,"372 Lafayette Ave, Clinton Hill, NY 11238",40.6887759766071,-73.9604237030468,116,4.0,11238
qtxrJUbyu6HQWqmcvN4niA,Home Restaurant,"1928 Fulton St, Brooklyn, NY 11233",40.67877,-73.922,3,4.5,11233
KifkRh0gGD0voBw4FHFCVA,Chirping Chicken,"355 Amsterdam Ave, New York, NY 10024",40.78163,-73.9792,500,3.5,10024
xYWa1kchoGxjgH4ZsatAJQ,Mr. Deli & Grill,"1185 Dekalb Ave, Brooklyn, NY 11221",40.6951220500844,-73.928664252162,4,4.0,11221
n0CFf_QvtK50ZW5g5w0teQ,Watty & Meg,"248 Court St, Brooklyn, NY 11201",40.685634,-73.994621,229,3.0,11201
n-59KQvfQhURg6WBqxXEQw,Grand Army,"336 State St, Brooklyn, NY 11201",40.688182,-73.986572,128,4.0,11201
UJSugMSGxB4vzBaCvmLthA,Treehaus Mima,"470 W 42nd St, New York, NY 10036",40.7591906203981,-73.9949657125923,108,4.0,10036
TdUhTJ7hCt0uANqHIcltOA,Olivier Bistro,"469 4th Ave, Brooklyn, NY 11215",40.6688499963761,-73.9896939343586,274,4.0,11215
60_ONUWGij1TbvDHSEcOpQ,PJ Clarke's,"44 W 63rd St, Lincoln Square, New York, NY 10023",40.771524604477,-73.9827515606251,677,3.0,10023
jQZu0WdLBYQZpdx3FDiOwQ,Wogies Bar and Grill,"44 Trinity Pl, New York, NY 10006",40.70723,-74.01342,97,3.5,10006
n96F0TszY5WIyCjVIbY6TA,Rustik Tavern,"471 Dekalb Ave, Brooklyn, NY 11205",40.690801,-73.958279,324,3.5,11205
60M7dk6cX6QCHAiGqB1GLg,Bronx Burger Bistro,"1426 Zerega Ave, Bronx, NY 10462",40.8373644254918,-73.8474466279149,20,4.5,10462
jh42MR1OQFAFMhe_pQEzmw,Rustic Table,"504 W 42nd St, New York, NY 10036",40.7597000493421,-73.9957614887371,474,4.5,10036
7O8RMiHmijSFFjB9FCBx2Q,Buckley's,"2926 Ave S, Brooklyn, NY 11229",40.60492,-73.94308,97,3.5,11229
c_dqcBhH21bGYBVbx9T9Mw,Riverdale Diner,"3657 Kingsbridge Ave, Bronx, NY 10463",40.8851013183594,-73.901496887207,258,3.0,10463
_cYuN0yD4aStZ0oXPaaRmQ,The Monro Pub,"481 5th Ave, Brooklyn, NY 11215",40.6677448,-73.9873605,77,4.5,11215
MUmfx7fr5GpPf_1MCExSQA,Js On The Bay,"1189 Bay St, Staten Island, NY 10305",40.61432,-74.06614,124,4.0,10305
