id,name,address,latitude,longitude,review_count,rating,zipcode
rp8S7scxOkVVeG7dNneMGQ,L'Artusi,"228 W 10th St, New York, NY 10014",40.733714,-74.005068,1476,4.5,10014
DoSU8IPq-Py_YV3kYmXPfQ,Trattoria Trecolori,"254 W 47th St, New York, NY 10036",40.75987,-73.98679,1727,4.0,10036
IErfGS0DASSJfYU73m0Sqg,Malatesta Trattoria,"649 Washington St, New York, NY 10014",40.73285,-74.00847,1099,4.0,10014
WG639VkTjmK5dzydd1BBJA,Rubirosa,"235 Mulberry St, New York, NY 10012",40.72275,-73.99622,1546,4.0,10012
V-FCEicobl5Su-R7EVJQNA,La Lanterna Di Vittorio,"129 MacDougal St, New York, NY 10012",40.73069,-74.00015,1289,4.0,10012
04exhf1PZ79_Km9vHAzvfA,Pepe Rosso Social,"173 Mott St, New York, NY 10013",40.7200621068478,-73.9961392432451,665,4.0,10013
mtmEa4vFYa764G97sqQ9dQ,Sapori D'Italia,"105 Mulberry St, New York, NY 10013",40.71735,-73.99855,48,5.0,10013
Vs8kQ4R381y27AH018gLpg,Supper,"156 E 2nd St, New York, NY 10009",40.7229,-73.98527,1110,4.0,10009
eODPY5rejL6CYvN4DEqwrg,Nostro Ristorante,"710 5th Ave, Brooklyn, NY 11215",40.66071,-73.99429,179,4.5,11215
xPmCy25F1-uq-1vAP_1TBQ,Piccante,"7214-A 3rd Ave, Brooklyn, NY 11209",40.6331599,-74.02726,32,5.0,11209
f8ipr8Wdy1_wHhw7JgNqPQ,Da Claudio,"21 Ann St, New York, NY 10038",40.71087,-74.00753,299,4.0,10038
abZ-mEvF6Tj4hfyIg0lKwQ,Vite Vinosteria,"31-05 34th St, Astoria, NY 11106",40.7629734277725,-73.92119564116,469,4.5,11106
kr5fRwdHtVwPPwSJxm9Fkg,Il Posto Accanto,"190 E 2nd St, New York, NY 10009",40.72238,-73.98403,160,4.5,10009
Ve6GVzzJpR5QIIPdcn6ViQ,Mercato,"352 W 39th St, New York, NY 10018",40.75619,-73.9937,699,4.0,10018
16ZnHpuaaBt92XWeJHCC5A,Olio e Piú,"3 Greenwich Ave, New York, NY 10014",40.733826,-73.999852,1056,4.0,10014
xeC9vn3dxVVzAMR_aFwfXg,IL Brigante,"214 Front St, New York, NY 10038",40.707492,-74.002571,282,4.0,10038
0Tvwk0hvgaY0QVIsZGTZKQ,Antica Ristorante,"8 Stone St, New York, NY 10004",40.7039355145338,-74.0121731758117,373,4.5,10004
Pu09oBx1ekEZiFt90PsSIw,Tableside Italian Cook Shoppe,"345 E 6th St, New York, NY 10003",40.7266287,-73.9863384,111,4.5,10003
5TX0X8w5ssIACU_pnBEq6g,Tony's Di Napoli,"147 W 43rd St, New York, NY 10036",40.75641,-73.98547,1638,4.0,10036
jdNdy-MwBtnXoBGC_JVvwQ,Gaia Italian Café,"251 E Houston St, New York, NY 10002",40.721653,-73.985346,876,4.5,10002
0SakkRuHhECsDsZ8mRkisQ,IL Triangolo Restaurant,"96-01 Corona Ave, Corona, NY 11368",40.742591,-73.86736,365,4.5,11368
tJxAlyeT5PRbUIyJ2wsv-A,Bamonte's,"32 Withers St, Brooklyn, NY 11211",40.71665,-73.95123,281,4.0,11211
dh5r9-SbN8xJ76XvnayWLQ,Giano Restaurant,"126 E 7th St, New York, NY 10009",40.7262256596862,-73.9840574049125,488,4.0,10009
OAqsZMbjv66nOMqlimnYuQ,Uva,"1486 2nd Ave, New York, NY 10075",40.77216,-73.95556,1972,4.0,10075
z7H9ApIGopnDnQaglnPTzg,Allora Ristorante,"145 E 47th St, New York, NY 10017",40.75433,-73.97277,202,4.5,10017
fuS39acPaRi38DhSSwEI4Q,Felice,"15 Gold St, New York, NY 10038",40.70789,-74.00712,251,4.0,10038
I2lgw_7DUnwD92ND4PN-Ow,Aunt Jake's,"149 Mulberry St, New York, NY 10013",40.7190315,-73.9977161,688,4.0,10013
MOwB9YYd-Ko6nVgSB-ltQw,Briciola,"370 W 51st St, New York, NY 10019",40.7637997047278,-73.9880919456482,655,4.0,10019
zwOAiVT4pAmpNGXzj-t5MA,Lilia,"567 Union Ave, Brooklyn, NY 11211",40.71757,-73.95236,433,4.0,11211
AUifp6IDKzmorCM6vY2fug,Pepe Giallo,"195 10th Ave, New York, NY 10011",40.7468940064083,-74.0049896784992,492,4.0,10011
bdKc4CSJPv-XLgxVwrtPrg,Forlini's Restaurant,"93 Baxter St, New York, NY 10013",40.71695,-73.99957,283,4.5,10013
hdiuRS9sVZSMReZm4oV5SA,Da Andrea,"35 W 13th St, New York, NY 10011",40.736218,-73.99597,655,4.0,10011
wTaomJ5xoi-c7R_xKFmcpA,Positano Restaurant,"10018 4th Ave, Brooklyn, NY 11209",40.6127378,-74.0339271,196,4.5,11209
_N92SH1Zi-Hbxn_bNHFz0Q,Noodle Pudding,"38 Henry St, Brooklyn, NY 11201",40.69979,-73.99203,492,4.0,11201
ry0nAQiUn8bpNAruY_5wfw,Scalino,"659 Manhattan Ave, Brooklyn, NY 11222",40.7244699,-73.95151,171,4.5,11222
s5nPO911cYB2chdwqSqT9g,La Nonna Ristorante & Bar,"184 Kent Ave, Brooklyn, NY 11249",40.718468787527,-73.9639185527139,217,4.0,11249
a4WZUTKn90dOkeY38JHNjQ,Aurora,"70 Grand St, Brooklyn, NY 11249",40.716054,-73.964771,489,4.0,11249
raqwXUBlnc0e8c7CYmxEJQ,Scarpetta,"88 Madison Ave, New York, NY 10016",40.7444728,-73.9855426,1617,4.0,10016
QObHX0yR6zd0WfksRDbJTA,Becco,"355 W 46th St, New York, NY 10036",40.76083,-73.98981,2393,3.5,10036
22nKUyCIbpnzR6R3_g1ptQ,Carmine's Italian Restaurant - Times Square,"200 W 44th St, New York, NY 10036",40.7575102204203,-73.9867817215653,2859,4.0,10036
zg9Jrtx9rqTXeaqufSOxHQ,Masseria Dei Vini,"887 9th Ave, New York, NY 10019",40.7682379335165,-73.9855485409498,366,4.0,10019
ZfyfGGtr7usMlsQP1LdU2g,Ornella Trattoria Italiana,"29-17 23rd Ave, Astoria, NY 11105",40.7748162,-73.9132582,735,4.0,11105
XvEz60Y0NbLxooK9AmRU8g,Piccoli Trattoria,"522 6th Ave, Brooklyn, NY 11215",40.6650986895797,-73.9864727962952,398,4.0,11215
KCBfW6sWl9Gx-LvMff08jg,Osteria Morini,"218 Lafayette St, New York, NY 10012",40.7219179851303,-73.9976472073402,968,4.0,10012
Z67mgMkN3RfdPEX5mXsyYA,Piacere,"351 Broome St, New York, NY 10013",40.7196979,-73.9951175,597,4.0,10013
yZJbealagfujEkgesAl2hA,Lupa,"170 Thompson St, New York, NY 10012",40.7276,-74.000045,1345,4.0,10012
aSprnLY-6GkMk1cuv0TMeA,Al Di La Trattoria,"248 5th Ave, Brooklyn, NY 11215",40.675332643247,-73.981340475038,785,4.0,11215
1OQSFZYa7yqpVj6e4lf4lg,Fluem Pasta,"241 Pearl St, New York, NY 10038",40.70753,-74.00538,27,4.5,10038
rJfGgBleDYCVq2rkBr_w-Q,Barano,"26 Broadway, Brooklyn, NY 11249",40.71037,-73.96794,154,4.5,11249
H_TGP2AgX3IUmzq8Aml79Q,L' Angolo,"190-A Duane St, New York, NY 10013",40.71734,-74.01044,30,4.5,10013
rTzojTIarMjh_X7YPliySw,Zio Luigi,"42-15 Queens Blvd, Sunnyside, NY 11104",40.7438632,-73.9220898,93,4.5,11104
yB4ziqFM_7V8JxJas7CHfA,Ulivo,"4 W 28th St, New York, NY 10001",40.7447371960713,-73.9880339428782,188,4.0,10001
J0OeDwmh5JBhid0A5GvltA,Il Corallo Trattoria,"176 Prince St, New York, NY 10012",40.7262073,-74.0018919,785,4.0,10012
Gh69oBruvlEieK1FEFkvWg,Queen Italian Restaurant,"84 Court St, Brooklyn, NY 11201",40.691356,-73.991905,259,4.0,11201
vhqFa_0SG9M7Ra1OTmfB9A,LaRina Pastificio & Vino,"387 Myrtle Ave, Brooklyn, NY 11205",40.69327,-73.97042,91,4.0,11205
k5fd-RSdG4IuXnnGSQ5oOw,San Marzano Pasta Fresca,"117 Second Ave, New York, NY 10003",40.727989,-73.98845,754,4.0,10003
TzVVPWK_4dhdSEpNqZwIhQ,Toscana 49,"143 East 49 St, New York, NY 10017",40.7556957079225,-73.9717184007168,130,4.0,10017
qBGKigOGn_flCx1apxPzlA,Piccola Cucina Osteria,"196 Spring St, New York, NY 10012",40.72506,-74.00322,281,4.5,10012
hV26aNvpfq5g34SI6_gvJA,Mama Rao Cucina Italiana,"6408 11th Ave, Brooklyn, NY 11219",40.6291809,-74.0057526,159,4.5,11219
eMSTTuOUlKEnSOr8lPp3Xg,Ammazzacaffè,"702 Grand St, Brooklyn, NY 11211",40.7113172,-73.9446243,76,4.5,11211
26emJlm1YMFyOCezfgVk4g,Da Raffaele,"883 First Ave, New York, NY 10022",40.7535386913133,-73.9666010811925,95,4.5,10022
WbkM29ZUAJtsatHEPBZtAQ,Laboratorio,"329 W 51st St, New York, NY 10019",40.76364,-73.98678,43,4.0,10019
lDhlNQHgzyxgi3By7Ko2LA,Fiore,"284 Grand St, Brooklyn, NY 11211",40.71293,-73.95787,360,4.0,11211
XHhRAKq6DArQXYhkgvwaow,Spaghetti Incident,"231 Eldridge St, New York, NY 10002",40.7223153441439,-73.9899454318763,430,4.0,10002
1ZKbUeFAs0ltSnAYq4ELKw,Trattoria L'incontro,"21-76 31st St, Astoria, NY 11105",40.7763330374196,-73.9105868339539,770,4.5,11105
hpRrYBbKUqv8ewFKDjbjoA,Gersi,"316 Court St, Brooklyn, NY 11231",40.683438,-73.995711,153,4.5,11231
Fx2RIQyX-im47fF9EGZniw,Il Sogno Secondo,"310 5th Ave, Brooklyn, NY 11215",40.67329,-73.98307,103,4.5,11215
a0IET3_yCFcO36OqGSsisg,Eataly,"200 5th Ave, New York, NY 10010",40.74195877796,-73.989716662832,4852,4.0,10010
q3_FgDWWuXcVGiNuo_OPBQ,Fiaschetteria Pistoia,"647 E 11th St, New York, NY 10009",40.72666,-73.9773,91,4.5,10009
mPHPVJ2-8mOR-lFHafrc6w,Evelina,"211 Dekalb Ave, Brooklyn, NY 11205",40.689722,-73.971003,45,4.5,11205
WG8vi6huvU1PkpY_R3whlw,Trattoria Belvedere,"165 Lexington Ave, New York, NY 10016",40.74397,-73.98114,294,4.0,10016
zww7OtudkcE921UT2ThOSg,Camillo,"1146 Nostrand Ave, Brooklyn, NY 11225",40.6596,-73.95081,59,4.5,11225
b6jOwyX4iaagw8YjXqq1sA,Antonio's Trattoria,"2370 Belmont Ave, Bronx, NY 10458",40.854131,-73.886601,583,4.5,10458
ZVa3-O6LMxZXSpKG0J1h-w,Piccolo Angolo Restaurant,"621 Hudson St, New York, NY 10014",40.7378601855952,-74.0058052539825,457,4.0,10014
ZTsN8TdMXl8SW_AKd_ablw,Forno Rosso,"327 Gold St, Downtown Brooklyn, NY 11201",40.69446,-73.98316,439,4.0,11201
DI_FoHY84hfzTWwlzF76aw,Benito One,"174 Mulberry St, New York, NY 10013",40.7199876084147,-73.9969271421432,531,4.0,10013
vbGqzhH_exG5HOG1I23kvg,Park Side Restaurant,"107-01 Corona Ave, Corona, NY 11368",40.743843,-73.856118,559,4.0,11368
ntQ7O1YPMIOrQkynhXRBVg,Manducatis,"13-27 Jackson Ave, Long Island City, NY 11101",40.7445948529884,-73.9490695847509,103,4.0,11101
74zaTegd7fnS6llTesn_Dg,Fragole Ristorante,"394 Court St, Brooklyn, NY 11231",40.68087,-73.99688,277,4.0,11231
pk89jzL1RsE9U0thf_z6tw,Locanda Verde,"377 Greenwich St, New York, NY 10013",40.7198601300801,-74.010039072422,1421,4.0,10013
R3gSQGB3aEmVpwbKIgOPqg,Fabio Cucina Italiana,"214 E 52nd St, New York, NY 10022",40.75667,-73.96912,202,4.5,10022
vjubSxmdG_HoBBgd39geBw,Nino's 46,"39 W 46th St, New York, NY 10036",40.7569159,-73.980516,923,4.0,10036
3n96VKiKG5Tte8z-U-TaLg,SoleLuna Restaurant,"40-01 Queens Blvd, Sunnyside, NY 11104",40.7441699,-73.92388,283,4.5,11104
oUVX94JtKyLPXozC2hemCg,Manetta's Ristorante,"1076 Jackson Ave, Long Island City, NY 11101",40.742935,-73.951929,307,4.0,11101
5Akss-swwfyoSVeIsDBbvw,Basta Pasta,"37 W 17th St, New York, NY 10011",40.73881,-73.99407,1286,3.5,10011
9Zv7Xu380q2rzPSLEXX0Xg,Joe's Restaurant,"6611 Forest Ave, Ridgewood, NY 11385",40.707518,-73.903177,149,4.0,11385
LXdblKc5g1Dp17xiV-Am1w,Trattoria Dell'Arte,"900 7th Ave, New York, NY 10019",40.765295646702,-73.98046281606,779,4.0,10019
53ZNJNrT91VgvrI0LFjLNQ,Locanda Vini e Olii,"129 Gates Ave, Brooklyn, NY 11238",40.685007,-73.962943,267,4.0,11238
PajKY49h4SpvSr-TW3lwCQ,Rafele Ristorante,"29 7th Ave S, New York, NY 10014",40.7309471231405,-74.0041171779098,384,4.5,10014
15k7iqFbhf4h8L01yggLqg,Song E Napule,"146 W Houston St, New York, NY 10012",40.7280296,-74.0018334,290,4.5,10012
4Kqzy6WJBZ4Tc0cg6k2XNQ,Vinny's of Carroll Gardens,"295 Smith St, Brooklyn, NY 11231",40.682103,-73.993438,178,4.0,11231
MphfKkYFEe0BDQ6hZ0A5fA,Gelso & Grand,"186 Grand St, New York, NY 10013",40.7194089547259,-73.9973777877722,480,4.0,10013
d15lwNLOlLSeaAYqPadntw,Sam's Place,"132 E 39th St, New York, NY 10016",40.749270880468,-73.977082744053,196,4.0,10016
fH8DkdRerw5LJ7fZZHRfeA,Leuca,"111 N 12th St, The William Vale Hotel, Brooklyn, NY 11249",40.722121,-73.956678,174,4.0,11249
sGIlOSvwW_x8-in8QmRwXA,Little Forno,"276 Bay Ridge Ave, Brooklyn, NY 11220",40.6356982,-74.0264421,40,4.5,11220
V3USzFEGhuoXez4G2Rk11A,Tavola,"488 9th Ave, New York, NY 10018",40.755403,-73.994516,674,4.0,10018
MeUq9lombxM9alxs64tejQ,Pepolino Restaurant,"281 W Broadway, New York, NY 10013",40.72077,-74.00489,444,4.5,10013
b42PcC1nCP602fiXF0a9Xg,Barbalu Restaurant,"225-227 Front St, New York, NY 10038",40.7074747,-74.0020404,203,4.0,10038
Be1Y-vAEMgo7lqL5alXgDA,Taverna Di Bacco,"175 Ludlow St, New York, NY 10002",40.72191,-73.98768,216,4.0,10002
32VbG_XgkZIuye0PV-BxaA,Zero Otto Nove,"15 W 21st St, New York, NY 10010",40.7407551035259,-73.9914887388588,393,4.0,10010
RXCCofQw1EjTcSN0ZeXfRA,Risotteria Melotti NYC,"309 E 5th St, New York, NY 10003",40.726673363853,-73.9880919456482,232,4.5,10003
ffJddI2ICrCz6q_QWrU5VQ,Da Ciro Brooklyn,"458 Myrtle Ave, Brooklyn, NY 11205",40.6931299,-73.96716,51,4.5,11205
5V4cUVikPN8ALWXBVdjltw,Mariella,"492 6th Ave, Brooklyn, NY 11215",40.6662419,-73.985749,238,4.5,11215
hDj_0pbi4mFR5p1H1w6igw,MISIRIZZI,"36 E 4th St, New York, NY 10003",40.7272,-73.9922799,72,4.5,10003
cKGi-erQrad9lf87VH6cjA,Antica Trattoria,"6810 Fresh Pond Rd, Ridgewood, NY 11385",40.7047141919752,-73.8961777844279,106,4.0,11385
zDujEq9qZk13nBcG2PH4tA,Il Falco,"21-50 44th Dr, Long Island City, NY 11101",40.7476595714373,-73.9455319123659,235,4.5,11101
twHJyFgUSd7wzioKQjE7Jw,Galli Restaurant,"45 Mercer St, New York, NY 10013",40.72168,-74.00141,708,4.0,10013
xKIv_b2L2pUHmsoJ-xOepg,Gran Morsi,"22 Warren St, New York, NY 10007",40.714328,-74.007751,250,4.5,10007
iXV4FMZPru7BB_nwN_8mVw,Maiella,"4610 Center Blvd, Long Island City, NY 11109",40.7470416595732,-73.956579002435,570,4.0,11109
562aZEpTDdYKDe5hWuDyFA,La Gioconda,"226 E 53rd St, New York, NY 10022",40.7570686,-73.9684186,131,4.0,10022
JLpEKUYAtzBRQwsUL3RPIA,Il Corso,"54 W 55th St, New York, NY 10019",40.762463,-73.977161,254,4.0,10019
0axnkZlDiQcJVc06DDXxGQ,Ristorante Il Melograno,"501 W 51st St, New York, NY 10019",40.7654289685161,-73.9914178848267,252,4.0,10019
e-XgOOm0X4Lk-gAX45Bj1Q,Baciccia Pizza e Cucina,"426A 7th Ave, Brooklyn, NY 11215",40.663811,-73.984451,40,4.5,11215
_WttOSi2_ggdvUI6GvaqTg,Da Nonna Rosa,"140 7th Ave, Brooklyn, NY 11215",40.67291,-73.97697,259,4.0,11215
z4CzSOnngC2RaTEC_BgUWA,Cataldo's Restaurant,"554 Vanderbilt Ave, Ste 1, Brooklyn, NY 11238",40.6800799,-73.96832,189,4.0,11238
nTt5cLJVcmBdM640izladw,Carmentas Italian Specialties,"50 Starr St, Brooklyn, NY 11221",40.70114,-73.92677,15,5.0,11221
vVVmHacu2YAxKfpIjhfd1g,NORMA Gastronomia Siciliana,"438 3rd Ave, New York, NY 10016",40.743553,-73.980026,162,4.5,10016
GBxnLvHAbpv9YU4GWfkASw,Patrizia's Of Sheepshead Bay,"1901 Emmons Ave, Brooklyn, NY 11235",40.5838270971647,-73.9496481877971,53,4.0,11235
tP7RR_9k9sDI2qGLlaaNNg,al Vicoletto,"9 E 17th St, New York, NY 10003",40.73774,-73.99127,119,4.0,10003
7EAj8VJX_DoKlZdCJBE4Pg,La Bella Vita,"163 Mulberry St, New York, NY 10013",40.719795,-73.997406,271,4.0,10013
BXiX5-ce4NNxsw7eUDZeOg,Giovanni's Brooklyn Eats,"1657 8th Ave, Brooklyn, NY 11215",40.660134,-73.983551,358,4.0,11215
1mp7uP6Kz_Zz4UClVfnjFQ,Testo,"141 Leonard St, Brooklyn, NY 11206",40.70832,-73.9468799,159,4.5,11206
0laCKZiHrdM_ZKdhTFbGgg,Sauce & Barrel,"97 Washington St, New York, NY 10006",40.707999,-74.0142651,187,4.0,10006
PInk3_IFkANrG8zXQHGfxQ,Broccolino,"213 Smith St, Brooklyn, NY 11201",40.684492,-73.991692,42,4.0,11201
3o0W7asUgP7EEKn8iFWFyA,Casa Nonna,"310 W 38th St, New York, NY 10018",40.75496,-73.99247,406,4.0,10018
3uyBZNbDk2vRFBBWZOdIUA,Dominick's Restaurant,"2335 Arthur Ave, Bronx, NY 10458",40.85434,-73.889,281,4.0,10458
clOFor0bFSjse7EUfdRacg,Faro,"436 Jefferson St, Brooklyn, NY 11237",40.707407,-73.922839,199,4.0,11237
NGzwDLroGL4JvG81BWliNw,Armondo's Italian Restaurant,"7316 Northern Blvd, Jackson Heights, NY 11372",40.7545652,-73.8934414,38,4.5,11372
tLZfepIfSf0a80zHQTbTGQ,Trattoria Zero Otto Nove,"2357 Arthur Ave, Bronx, NY 10458",40.8546515,-73.8883526,610,4.0,10458
AAQDZdKhtcX7otmOfOF9nw,Gino's Restaurant,"7414 5th Ave, Brooklyn, NY 11209",40.63,-74.02274,521,4.0,11209
JU5d81TYm7IJHWqOqJWMqw,Have & Meyer,"103 Havemeyer St, Brooklyn, NY 11211",40.7132687751084,-73.9564743950496,61,4.0,11211
4j_n7nPaZrp6_lEInZaA8Q,Aita,"132 Greene Ave, Brooklyn, NY 11238",40.686409,-73.9666214,221,4.0,11238
qgY41g_eg0eNzewCXmKcaA,Lillo Cucina Italiana,"331 Henry St, Brooklyn, NY 11201",40.69019,-73.996208,19,5.0,11201
LRgB2kEKtBxqIxNksTO_PQ,Patrizia's,"35 Broadway, Brooklyn, NY 11249",40.710939,-73.967504,485,4.0,11249
Ry9w-jFALWYhazi6jjyIKw,Rucola,"190 Dean St, Brooklyn, NY 11217",40.68554,-73.98592,413,4.0,11217
TO9IICJjvcg1QhLVnap9fA,Cent'Anni,"742 Franklin Ave, Brooklyn, NY 11238",40.6730907423467,-73.9573492245369,326,4.0,11238
lwfCl81r5a0mjxDNxNGC9w,Il Buco,"47 Bond St, New York, NY 10012",40.72583,-73.99299,549,4.0,10012
-Gc5sTFxoXM3Tiv_dkSJZg,Cecconi's Dumbo,"55 Water St, Brooklyn, NY 11201",40.703415,-73.991409,254,3.0,11201
eAvP3Q0NCpJs9U0X1pEf-A,Caffe E Vino,"112 Dekalb Ave, Brooklyn, NY 11201",40.68971,-73.97827,284,4.0,11201
eWMuXtaBzf0H5u0Vf_zpjw,Ciccio,"190 6th Ave, New York, NY 10013",40.726306,-74.003427,236,4.0,10013
Cm_knZN7W1MaFEp8MkBBSA,Tramonti La Pizza,"130 Saint Marks Pl, New York, NY 10009",40.72667,-73.9836,63,4.5,10009
JOvcJqD5eCFrGjFa6k7vpQ,Zia Maria,"318 W 23rd St, New York, NY 10011",40.7454863,-73.9993392,142,4.0,10011
y_tRUBOu3qg7lkaO2Xk1hQ,Frost Restaurant,"193 Frost St, Brooklyn, NY 11211",40.71839,-73.94346,130,4.0,11211
6Z5OWpaeGGazJHR4LfThsw,Palma,"28 Cornelia St, New York, NY 10014",40.73115,-74.00233,587,4.0,10014
UDctdHFr042j8-ZfG2Kf2Q,Scriptum Brooklyn,"65 Kent Ave, Brooklyn, NY 11249",40.72193,-73.959621,32,5.0,11249
faukkggAc_tuJ4THYlf4fg,La Masseria,"235 W 48th St, New York, NY 10036",40.760868632784,-73.986348802868,493,4.0,10036
l7OsDvMOO3ji3fg0nT0QzA,Tony's Di Napoli,"1081 3rd Ave, New York, NY 10065",40.76435,-73.96408,499,4.0,10065
pr_CLSHRCs2lWADPOKKxcw,Pasta Dal Cuore,"527 Jersey Ave, Jersey City, NJ 07302",40.7209453944042,-74.0465693799559,180,4.0,07302
n-W54Fja1oW5u3gzYp9HwA,Avena,"141 E 57th St, New York, NY 10022",40.76099,-73.96863,105,4.5,10022
L5MrjGhBqQkwlguY0ilxqA,The Saint Austere,"613 Grand St, Brooklyn, NY 11211",40.7114604,-73.9476182,322,4.5,11211
2Ga76-_btMgRTcHPy7kAUg,Ortobello Restaurant,"6401 Bay Pkwy, Brooklyn, NY 11204",40.6142763970316,-73.9807206406357,186,4.0,11204
TWH4MjLtN1fKlF-7n6YXHg,Lil' Frankie's,"19 1st Ave, New York, NY 10003",40.723625,-73.988555,863,4.0,10003
15d_Y6TVOQFD2KRVkxuAjw,Baci & Abbracci,"204 Grand St, Brooklyn, NY 11211",40.7139015197754,-73.96044921875,257,4.0,11211
01eI6pT0doZiu0nm-Gl7RA,Trattoria 35,"213-15 35th Ave, Bayside, NY 11361",40.7689339667559,-73.7743084877729,358,4.0,11361
goqTQ4tOD-asC_ZJBW9l7w,Patsy's Italian Restaurant,"236 W 56th St, New York, NY 10019",40.76553,-73.98274,596,4.0,10019
uPWyvfh5qSrVbujhjsDiiw,Oregano,"102 Berry St, Brooklyn, NY 11249",40.7190165,-73.9586248,316,4.0,11249
x61Sizu7lqGPMGuKEGHo-Q,Senso Unico,"43-04 47th Ave, Sunnyside, NY 11104",40.7414137015591,-73.9216857927781,22,4.5,11104
3D6UAhoKnF3A03rX_v5ngA,Bacaro,"136 Division St, New York, NY 10002",40.71456,-73.99154,357,4.0,10002
rtivWWzG0XjUuhSrwusTgQ,Fausto,"348 Flatbush Ave, Brooklyn, NY 11238",40.67595,-73.97187,58,4.0,11238
yi6jIxzHo-nbAOG4KWuqcw,Maialino,"2 Lexington Ave, New York, NY 10010",40.738437,-73.985686,1217,4.0,10010
r2nIYBSyXny1-7XvsL2PVg,Lena's Italian Kitchen,"551 2nd Ave, New York, NY 10016",40.742664,-73.977783,84,4.5,10016
Jx3dG_USDDOXZuUaU_EVzg,Tazzina,"102-15 Metropolitan Ave, Forest Hills, NY 11375",40.710534,-73.850067,282,4.0,11375
LfRiA6RORToZUSJUHkZBVA,Frankies 457 Spuntino,"457 Court St, Brooklyn, NY 11231",40.677328,-73.997972,676,4.0,11231
aJJlY5xvqS180wtRIHEWqA,Cotenna,"21 Bedford St, New York, NY 10014",40.7288766399798,-74.0034306011874,308,4.0,10014
MCnexHfsclcOpLHS4_2U0A,San Carlo Osteria Piemonte,"90 Thompson St, New York City, NY 10012",40.725139,-74.002098,106,4.5,10012
PgTgzq8oKcP2r00YUWL03A,Sole di Capri,"165 Church St, New York, NY 10007",40.71511,-74.00758,209,4.0,10007
D-smGg8zFQzk40EdessZ5w,Portalia,"35-03 Broadway, Astoria, NY 11106",40.76058,-73.92182,368,4.0,11106
81ATGBKh1Ke6EX_L3qHaIQ,Ferdinando's Focacceria,"151 Union St, New York, NY 11231",40.6841934772249,-74.0018677711487,168,4.0,11231
skLDCHQcmivdGx5Qd_qBIA,Il Passatore,"14 Bushwick Ave, Brooklyn, NY 11211",40.71431,-73.94217,340,4.0,11211
XfOa_KyrV7JSFJMOKckGMg,Monte's Trattoria,"97 Macdougal St, New York, NY 10012",40.72959,-74.0011,271,4.0,10012
PQd4M3cuSgdweWgLgZIslQ,Inatteso Pizzabar Casano,"28 West St, New York, NY 10004",40.7056571,-74.0172056,258,4.0,10004
QhRQE6nOMLd00kV2k-IsbQ,Augustino's,"1104 Washington St, Hoboken, NJ 07030",40.75024,-74.02732,227,4.0,07030
kIm0oeOaVfC9-2flLPVklA,Patrizia's Pizza and Pasta,"462-466 2nd Ave, New York, NY 10016",40.7398415,-73.9792862,375,4.0,10016
MTQpqHo-cCAPK7c9fd6zHw,Il Mattone,"49 Beach St, New York, NY 10013",40.720799,-74.0091255,38,4.5,10013
wUoLj0v2cJ9T4mgebQqoZw,Giardino D'oro,"5 Gold St, New York, NY 10038",40.70758,-74.00715,77,4.0,10038
A2DV-AQIXRYUMu5Ak5mjxg,Patzeria Family & Friends,"311 W 48th St, New York, NY 10036",40.7615,-73.98754,760,4.5,10036
if6ZZopcH51YQ7E3y4BxaA,Tuscan Hills,"11060 Queens Blvd, Forest Hills, NY 11375",40.7189811,-73.8391963,337,3.5,11375
yETcEIV9G7qxdwPdbivCmQ,Piccola Venezia Restaurant,"4201 28th Ave, Astoria, NY 11103",40.764797,-73.911766,201,4.0,11103
qrcu1K6f8WGMODdq_A8unw,Volare Restaurant,"147 W 4th St Frnt, New York, NY 10012",40.7315434396639,-74.0006124973297,105,4.5,10012
SpyQHasbnU5YkOR6PI4sNQ,Margherita NYC,"197 Grand St, New York, NY 10013",40.7189865112305,-73.9969329833984,235,4.0,10013
hmwa4FyeLqwNTe6CNTA5tw,Fioro,"191 Pearl St, New York, NY 10038",40.7064627453014,-74.0071007580581,45,4.0,10038
l7Z0p-PkSwIDPLPY1TRl8A,Emilio's Ballato,"55 E Houston St, New York, NY 10012",40.7244923,-73.9944022,227,4.0,10012
i4TzhIY8z0KIaBBH1iLZLA,Il Poeta,"98-04 Metropolitan Ave, Forest Hills, NY 11375",40.7108,-73.85454,183,4.0,11375
JuHeNFYoeva_FDjmtj_vLw,il Fornetto,"2902 Emmons Ave, Brooklyn, NY 11235",40.5835841,-73.9397077,263,4.0,11235
IIsJN_ilLI36zGAF3SMCCQ,La Piccola Cucina,"964 Amsterdam Ave, New York, NY 10025",40.8015,-73.96534,92,4.0,10025
f_1BjTChf6bobreSRpqhsw,Arco Cafe,"886 Amsterdam Ave, New York, NY 10025",40.7988462,-73.967065,210,4.5,10025
eTneVbjPKdo4gD9HfkDGdA,Santa Panza,"1079 Broadway, Brooklyn, NY 11221",40.6947,-73.93068,89,4.5,11221
mYc4l0LrKTDQJb6zH3Rs4g,Giovanni's,"192 Ave U, Brooklyn, NY 11223",40.5986397406659,-73.9774421390579,9,5.0,11223
kpXDpjPKLKMjvCne8cEAjg,Pane E Vino,"174 Smith St, Brooklyn, NY 11201",40.6858099,-73.991444,266,3.5,11201
HJwXGxmXdB1X3gfCZMujjg,Broccolino,"446 Dean St, Brooklyn, NY 11217",40.6819311529398,-73.9762727916241,219,3.5,11217
yFtOtTd7ncSjFF3QavQ5cA,Crispo,"240 W 14th St, New York, NY 10011",40.7392469,-74.0016882,848,4.0,10011
Gcgk6wz6itQ3D8P1Yf_5zA,Sebastiano's,"257 Columbia St, Brooklyn, NY 11231",40.68332,-74.00337,10,4.5,11231
h37t9rA06Sr4EetJjKrfzw,Don Angie,"103 Greenwich Ave, New York, NY 10014",40.73778,-74.00197,94,4.5,10014
-hUvO0C0A-pGZdiSKvjoFw,Babbo,"110 Waverly Pl, New York, NY 10011",40.732283,-73.999284,2190,4.0,10011
wZkZmjZEJDraLJgAalnHvA,Pisticci,"125 La Salle St, New York, NY 10027",40.8141624,-73.960288,689,4.0,10027
mTWlEiCUEBlxBAkIikkB1A,Carmine's Italian Restaurant - Upper West Side,"2450 Broadway, New York, NY 10024",40.791077,-73.973763,1054,4.0,10024
VXyk19eG4B2I6noumvfHCw,Gargiulo's,"2911 W 15th St, Brooklyn, NY 11224",40.57641,-73.98244,178,4.0,11224
zjglOaCY8xQu3s2eKnLFzw,Mozzarella & Vino,"33 W 54th St, New York, NY 10019",40.76204,-73.97718,197,4.0,10019
jj_SCEzBi_CdZWMTjTwf_Q,Monte's,"451 Carroll St, Brooklyn, NY 11215",40.6775499,-73.98724,117,4.0,11215
5WMGy-lEcQPfLb3q7erS-Q,Acquista Trattoria,"178-01 Union Tpke, Flushing, NY 11366",40.7265391,-73.7898816,300,4.0,11366
1DT6XYMzcekpFQ41Hj44vA,Luzzo's BK,"145 Atlantic Ave, New York, NY 11201",40.690645,-73.995239,149,4.0,11201
ieoPAi6nbdEkrwv4vGVSwg,Via Trenta Osteria & Wine Bar,"36-19 30th Ave, Astoria, NY 11103",40.764806,-73.916585,383,4.0,11103
ugIv_ylUdqRIlx6AD8lTJA,Basso56,"234 W 56th St, New York, NY 10019",40.7655,-73.98267,519,4.0,10019
pEJ5Zw3ogzbCpWAa6buJjg,Vite Bar,"2507 Broadway, Astoria, NY 11106",40.7634138,-73.9281187,88,4.5,11106
h4VCnZ2aZ33mdenS_ZI7jQ,Mama Mia 44 SW,"621 9th Ave, New York, NY 10036",40.75976,-73.99207,348,4.0,10036
13GEQ-lgTcydZda7lhv_hw,La Palina Restaurtant,"159 Ave O, Brooklyn, NY 11204",40.6109099,-73.97885,143,4.0,11204
pK-TQMe7SE_erplC9EWjUA,Bella Gioia,"209 4th Ave, Brooklyn, NY 11217",40.6775302,-73.9827215,155,4.5,11217
o2SAcKbfOMkA71xUfyee6Q,Rossini's,"108 E 38th St, New York, NY 10016",40.74921,-73.97883,139,4.0,10016
Zz-1pzGqrgParLQ_LzY0lw,Massoni,"11 E 31st St, New York, NY 10016",40.74635,-73.98494,171,4.0,10016
Mo8Q_bE6ehr00L2KC0DekQ,Da Marcella,"142 W Houston St, New York, NY 10012",40.72806,-74.00172,225,4.0,10012
OXwE8UzYV0kvQpV5Bv6nHQ,Anthony's Place,"2812 Ocean Ave, Brooklyn, NY 11229",40.5928522,-73.9505447,140,4.0,11229
FNxOWxts63oDRKwy9Pbfzw,Tarallucci E Vino - Nomad,"44 E 28th St, New York, NY 10016",40.7436553,-73.9852171,71,4.0,10016
JyXn_GCGM2DsNYIzgzQrDw,Da Gennaro,"129 Mulberry St, New York, NY 10013",40.71832,-73.99794,571,4.0,10013
78TCGIG1eHMYdyvMpFdDbQ,Follia NYC,"179 3rd Ave, New York, NY 10003",40.7349243164062,-73.9855880737305,82,4.0,10003
24Fe99IbeFWERDVN7QGB4Q,La Vigna Restaurant,"10011 Metropolitan Ave, Forest Hills, NY 11375",40.71098,-73.85272,157,4.0,11375
cRUuiiEW7F0uqtgSG-sKCg,Mama Maria's Restaurant,"307 Court St, Brooklyn, NY 11231",40.68356,-73.99517,102,4.0,11231
T-RXDLq_VEv7s1_SooYIYQ,Osteria 57,"57 W 10th St, New York, NY 10011",40.73467,-73.99786,32,4.5,10011
LTi4_wcCVmqQeJ_jgTEbOQ,Emporio,"231 Mott St, New York, NY 10012",40.7226371,-73.9951331,640,4.0,10012
gyWc5qJRvu26LVQIShdR4Q,Babbalucci,"331 Lenox Ave, New York, NY 10027",40.808854624629,-73.9448426663876,281,4.0,10027
rJJiGJx3kfMAxtD7P7okHQ,Celeste,"502 Amsterdam Ave, New York, NY 10024",40.78666,-73.97599,800,3.5,10024
2BJCPzGoWnOFgDbvoHi1Tw,Gino's Trattoria,"548 Flatbush Ave, Brooklyn, NY 11225",40.6605221493743,-73.9606475830078,203,4.0,11225
9iC39Z1YjZKbrrCANgzBXg,Sergimmo Salumeria,"456 9th Ave, New York, NY 10018",40.754296,-73.995498,587,4.0,10018
z-y9GDoRr1S9Ma6b2n0A4A,Enoteca Maria,"27 Hyatt St, Staten Island, NY 10301",40.642,-74.07729,320,4.0,10301
o5mMVFk4Hcpk2FuKfgTgdg,Malaparte,"753 Washington St, New York, NY 10014",40.73687,-74.00804,256,4.0,10014
Yubu48l7he-qrNDSeAngbQ,Via Vai,"31-09 23rd Ave, Astoria, NY 11105",40.7741411036965,-73.9124788508343,155,4.0,11105
Fit_iIDn__NPVZpVlKFBFQ,Osteria 106,"53 W 106 St, New York, NY 10025",40.79904,-73.96166,34,4.5,10025
_3QRn51W3IoqBzc9fYet4Q,Grazie,"26 E 84th St, New York, NY 10028",40.77948,-73.9601,276,4.0,10028
g-x0AcFbyiQDvnkeus0BLw,Vivolo Restaurant,"140 E 74th St, New York, NY 10021",40.7716751098633,-73.961555480957,161,4.0,10021
Njr_f1J5Pve35OyPdBljVA,Convivium Osteria,"68 5th Ave, Brooklyn, NY 11217",40.68105,-73.97748,417,4.0,11217
25npnVAlhRjguunYS8zy8w,Piccola Strada,"77 E 4th St, Between 5th Ave, New York, NY 10003",40.726635460956,-73.9904360317688,155,4.0,10003
c4PIUs7uwg9lA4ObzJ4V5Q,Barosa,"62-29 Woodhaven Blvd, Rego Park, NY 11374",40.7261576942186,-73.8698450511809,277,4.0,11374
JrJRfpGicISz_Gt9LkPMvw,Belli Osteria,"860 Fulton St, Brooklyn, NY 11238",40.6835199838354,-73.9669024162476,185,4.0,11238
yQ7K4uFnxXxpBVbnOSR8kA,Polpette 71,"71 West 71st St, New York, NY 10023",40.77668,-73.97888,63,4.0,10023
EegEULbC3qoMA-FaEjivtA,Barbuto,"775 Washington St, New York, NY 10014",40.7377203192966,-74.0080020711638,815,4.0,10014
ifIfq2EwEohCgoKnG68_LA,Villa Berulia,"107 E 34th St, New York, NY 10016",40.7467827,-73.9806507,127,4.0,10016
Aazjxg21VH2cncWYBAv68Q,Sottocasa Pizzeria- Boerum Hill,"298 Atlantic Ave, Brooklyn, NY 11201",40.68838,-73.98895,520,4.5,11201
tCFhIU4xSN6b7dbg3ApafQ,Tiella,"1109 1st Ave, New York, NY 10065",40.7606782444803,-73.9612435559085,164,4.0,10065
-58--bg-KKUNArp18U4llA,da Umberto,"107 W 17th St, New York, NY 10011",40.7396659851074,-73.9958267211914,140,4.0,10011
pxtno4adrYTjyQsxngTj9A,dell'anima,"38 8th Ave, New York, NY 10014",40.7379511,-74.0039166,577,4.0,10014
WYhRkUATHRyXZrE55MArbA,Scalini Fedeli,"165 Duane St, New York, NY 10013",40.7173964385114,-74.0093277537459,273,4.5,10013
YKao3OFejm_GF-kepyI90w,Allora Italian Kitchen & Bar,"210-35 26th Ave, Bayside, NY 11360",40.7783060114644,-73.7795145585888,301,4.0,11360
Lesv5BG0_0-8bB49cAjMkg,Roberto's,"603 Crescent Ave, Bronx, NY 10458",40.85372,-73.88834,219,4.0,10458
SHG9wQ5PfyXDgJDYkrPu7Q,Vago Restaurant,"509 3rd Ave, New York, NY 10016",40.7458699,-73.9778,90,4.0,10016
k2o2DJOZT0oGTM-zmAJUfQ,Adelina's,"159 Greenpoint Ave, Brooklyn, NY 11222",40.730495,-73.9533809,139,4.0,11222
cnMNL1O_dVtCdTyQwwOwOQ,Bistango,"415 3rd Ave, New York, NY 10016",40.7425771,-73.9800892,614,4.0,10016
KSUtWeFngYHhNff9DfjVBQ,Forno Pizzeria E Trattoria,"52-27 69th St, Maspeth, NY 11378",40.73274,-73.89556,134,4.5,11378
RiN-EOiQLXlJszhe6HJdZA,Il Colosseo,"7704 18th Ave, Brooklyn, NY 11214",40.612231,-73.997545,163,4.0,11214
6-ShONYFIM9K8HAUOhZVlw,Da Mikele,"275 Church St, New York, NY 10013",40.718477,-74.004802,314,4.0,10013
ZUrGqOG2cetGI-KKXk3c2g,Chazz Palminteri Italian Restaurant,"30 West 46th St, New York, NY 10019",40.756473,-73.98063,131,4.0,10019
bppjJw5J8Ht6WgGp1bzPtQ,Porto Leggero,"185 Hudson St, Harborside Financial Plaza V, Jersey City, NJ 07311",40.7187593,-74.0349084,152,4.0,07311
HCceFqcvzUbGFO5Bv6Q_pA,Raviolo,"57 7th Ave S, New York, NY 10014",40.73168,-74.00368,61,4.0,10014
x6u4DehJyvFPJKOOSjhPdg,Villa Erasmo,"69-61 Juniper Blvd S, Middle Village, NY 11379",40.71685,-73.8862599,35,4.0,11379
uYHN9Vw3V1ajDGRnNDtbYw,Michael's of Brooklyn,"2929 Ave R, Brooklyn, NY 11229",40.6076329987397,-73.9428921973385,166,4.0,11229
phB6HvQyOUEZmvgg9KzRmA,Da Franco & Tony Ristorante,"2815 Middletown Rd, Bronx, NY 10461",40.843635,-73.836135,61,4.5,10461
ujbH5MZQzC2SSuRF3XvNfQ,Mi Garba,"129 4th Ave, New York, NY 10003",40.733253210783,-73.9898487925529,87,4.0,10003
7_hGsGEkHrjgAiYVjrCFnw,Carbone,"181 Thompson St, New York, NY 10012",40.728,-74.0001497,690,4.0,10012
St8a2de1vfyCxwIySBUWbA,Graziella's,"232 Vanderbilt Ave, Brooklyn, NY 11205",40.6904563903809,-73.9696273803711,349,4.0,11205
5MpWHGQ6Qc-M4q1KL_nioA,Bar B,"84 7th Ave, New York, NY 10011",40.7395018010206,-73.9990556562659,139,4.5,10011
t-Pm38_XhMnGfOYgkhaNRA,Le Fanfare,"1103 Manhattan Ave, Brooklyn, NY 11222",40.736202,-73.955558,122,4.0,11222
WEhkGLKlj-5X1pq_07Syaw,Vesta,"21-02 30th Ave, Astoria, NY 11102",40.76961,-73.92776,611,4.0,11102
cBmZRsZmUfBg6eMPPM6ypA,Zagara Ristorante Italiano,"216 7th Ave, New York, NY 10011",40.743835,-73.996088,163,4.0,10011
HSKcCmRFqzqG542Hy_eftw,Siena,"1580 3rd Ave, New York, NY 10128",40.78073,-73.953,101,4.0,10128
elPjOCDb8WmOpaQEI-AAOw,Forno Siciliano,"43-19 Ditmars Blvd, Astoria, NY 11105",40.7711294255972,-73.9031770938873,74,4.0,11105
gqFM-JsHftTRplYbPF64Kg,Ecco,"124 Chambers St, New York, NY 10007",40.715129,-74.008865,113,4.0,10007
hvi63FpI8TIhvVLFsvfKWQ,Angelo's,"146 Mulberry St, New York, NY 10013",40.71895,-73.997382,381,3.5,10013
lgFApPVpbXnsIFw1CRJORw,Cellini Restaurant,"65 E 54th St, New York, NY 10022",40.7600530715894,-73.9727372548065,125,4.0,10022
0wzQPZvvbUqhD7D8JNkGZw,Ristorante Grifone,"244 E 46th St, New York, NY 10017",40.7524032592773,-73.9710006713867,100,4.0,10017
nHMDOIX32dGbfpuNUwsLNQ,AlMar,"111 Front St, Brooklyn, NY 11201",40.702662,-73.989177,312,4.0,11201
hzPBADaUBQEL30MGrvKsww,Il Tinello Ristorante Italiano,"16 W 56th St, New York, NY 10019",40.76256,-73.97566,205,4.5,10019
aLM9irVFlNoVlS9dGuW_Lg,Amata,"209 E 56th St, New York, NY 10022",40.759426,-73.967063,59,4.5,10022
rpVX-o82EEOX8ZDnM28a_Q,Bistango,"145 E 50th St, The Kimberly Hotel, New York, NY 10022",40.75628,-73.97144,187,4.0,10022
idxD3X7WfLFPZMoFnCRIQQ,Il Cantinori,"32 E 10th St, New York, NY 10003",40.7322779619352,-73.9929321762328,215,4.0,10003
zGThJJhL82LDEUlUFALImQ,Battista Ristorante,"4602 Ave N, Brooklyn, NY 11234",40.61848,-73.930587,78,4.0,11234
Bk7METp9hGgm409E6EoBhw,Mani In Pasta,"245 E 14th St, New York, NY 10003",40.7326,-73.98515,22,5.0,10003
4pVVwr83eAdQva81lY9ylA,Il Baretto,"750 11th Ave, New York, NY 10019",40.7674882560968,-73.9933906495571,144,4.0,10019
l8IORbpTz9EwCmHJ_TRULw,Avere Ristorante,"222 Duffield St, Brooklyn, NY 11201",40.6915079,-73.9849649,8,4.0,11201
WmK7GXwOnLSTRN1ocyUThg,Puglia Ristorante,"189 Hester St, New York, NY 10013",40.71823,-73.99764,317,4.0,10013
uPe0efNw-uwPybeqccZ1zQ,Osteria Al Doge,"142 W 44th St, New York, NY 10036",40.75662,-73.9849,382,4.0,10036
dc3hkLkAqCSxDWQzrx-g9A,Quality Italian,"57 W 57th St, New York, NY 10019",40.7644044527436,-73.9767805051616,785,4.0,10019
yRAU7MtAE9St6Q8LSeFZCQ,Mama Bella's Grill & Bar Lounge,"457 Bushwick Ave, Brooklyn, NY 11206",40.7018189161952,-73.9367522552254,26,4.0,11206
byye4kc-xGk8qCxR0ZuUdA,Il Posto,"7409 Ave U, Brooklyn, NY 11234",40.6216049194336,-73.9052124023438,51,4.0,11234
jSrDUsCXkKqbBQ9sqDLFcg,Magna Restaurant,"3525 Farrington St, Flushing, NY 11354",40.76371,-73.831117,94,4.5,11354
9W_dg9fvb-z8DBye2jfGiQ,Dazie's,"39-41 Queens Blvd, Sunnyside, NY 11104",40.7441737,-73.9248106,65,4.0,11104
iQo5aJwTL_ZrXCdPFKq-RA,Isle of Capri,"1028 3rd Ave, New York, NY 10065",40.76283,-73.96602,180,4.0,10065
jnHbdsqlTKlPcmJ8BCP9-g,Via Carota,"51 Grove St, New York, NY 10014",40.7331,-74.00369,259,4.0,10014
jku9Fg8JsUbv_LQzg6PK4g,Lavagna,"545 E 5th St, New York, NY 10009",40.72406,-73.98226,331,4.0,10009
ddyYKrNWkdc5mudrmLaTvA,Flora,"1021 8th Ave, Brooklyn, NY 11215",40.66452,-73.97989,17,5.0,11215
8qSOz7oTPUUCafsMOBBNEQ,Pisillo Italian Panini,"97 Nassau St, New York, NY 10038",40.7104975,-74.0076675,456,4.5,10038
_V7YsDQ4Lb41rqfkuPzm1w,Trattoria Pesce Pasta,"262 Bleecker St, New York, NY 10014",40.73115,-74.00319,194,4.0,10014
4eGCuMwKRCCrYHOobEsFpA,Lusardi's,"1494 2nd Ave, New York, NY 10075",40.77237,-73.95539,147,4.0,10075
YFvF4r2D-wJOgJAOvanaZQ,Gnoccheria by Luzzo's,"234 E 4th St, New York, NY 10009",40.723315,-73.983139,148,4.0,10009
Q1_UvNyONsaVS_VC1mD9Dw,Osteria Cotta,"513 Columbus Ave, New York, NY 10024",40.78554,-73.97263,638,4.0,10024
f8TZ_ctcSwxwW8S69YKnwg,Il Bambino,"34-08 31st Ave, Astoria, NY 11106",40.76281,-73.92089,1136,4.5,11106
IxwuIDcpRa7EpQs7V481Ww,Il Gattopardo,"13-15 W 54th St, New York, NY 10019",40.7614994602915,-73.976308999227,117,4.0,10019
3X3n5JtRZHwOlHnMkQTjfw,Cappone's Salumeria,"1 New York Pl, New York, NY 10004",40.6217408,-74.129045,24,4.5,10004
gls8Eii-vgwKScOCNQWz9w,Cafetal Social Club,"285 Mott St, New York, NY 10012",40.724308,-73.994457,80,4.5,10012
FKzpfWUpyupl4q74Jt8fTA,Don Antonio,"309 W 50th St, New York, NY 10019",40.762711,-73.986708,1140,4.0,10019
3qIISjUYn1tbqHXi7nCLXg,Sofia Wine Bar,"242 E 50th St, New York, NY 10022",40.75492,-73.96922,562,4.0,10022
889z8wsV9R1X2CAp63wrsw,Casa Apicii,"62 W 9th St, New York, NY 10011",40.73381,-73.99875,116,4.0,10011
-tQ9Zlb5d9PPlDz_6UgV7w,Antica Pesa,"115 Berry St, Brooklyn, NY 11249",40.71884,-73.95865,310,3.5,11249
NkAUvrtAcnebxPB6zayjsg,Lamarcapasta,"161 E 22nd St, New York, NY 10010",40.73841,-73.9839499,262,4.0,10010
w0YkRy2gsr0znrM7ojZtTw,Scottadito Osteria Toscana,"788A Union St, Brooklyn, NY 11215",40.6746627,-73.9766125,718,4.0,11215
C3OlQ_y5LcgboyaKlpETYA,Trattoria Casa Di Isacco,"536 9th Ave, New York, NY 10018",40.7568,-73.99342,209,4.0,10018
-7iUpGTNDdy4WjxLGYp-_g,Trattoria Italienne,"19 W 24th St, New York, NY 10010",40.7430619,-73.9903948,66,4.0,10010
eQdjZQaLnjItmn9suEEeIA,Patricia's,"1082 Morris Park Ave, Bronx, NY 10461",40.84912,-73.8533099,366,4.0,10461
C8Ctyq7pXOPESK8cz_X2CA,Pomodoro Rosso,"229 Columbus Ave, New York, NY 10023",40.776317,-73.979187,253,3.5,10023
71gTwIVOynPCNOFLEv-bQA,LBK Pizza Napoletana,"669 Union St, Brooklyn, NY 11215",40.67741,-73.98265,22,4.5,11215
_17lSQzogvatMOhutxDvdw,Mulino a Vino,"337 W 14th St, New York, NY 10014",40.74079,-74.00417,155,4.0,10014
EU47dsc_vvByG3qPIMyRog,La Locanda,"432 Graham Ave, Brooklyn, NY 11211",40.7178382873535,-73.9446640014648,72,3.5,11211
asMg3FeJWauvaoE8MVxiBw,Trattoria Romana,"1476 Hylan Blvd, Staten Island, NY 10305",40.592329,-74.087054,140,4.0,10305
WwyOYh84Ea0HNaQGgA6d4w,Kestè Williamsburg,"232 N 12th St, Brooklyn, NY 11211",40.7192686,-73.9530651,117,4.0,11211
JaD3WhM5pFGTwC5e7cHaKQ,Riviera Ristorante,"17-12 Utopia Pkwy, Whitestone, NY 11357",40.78226,-73.79474,81,4.0,11357
BeE1tVTCmorm31fwXvX7Wg,Ora di Pasta,"1 W 59th St, New York, NY 10019",40.7644615,-73.9738617,170,4.0,10019
zo4JHfD2nWPUiqgsgDOaHQ,Rao's,"455 E 114th St, New York, NY 10029",40.79392,-73.93427,125,4.5,10029
fR4JL77ZHvoXHQ_-bComqA,Trattoria Cerbone,"71-24 Fresh Pond Rd, Ridgewood, NY 11385",40.7014002,-73.894951,37,4.0,11385
vZ5-JXlJS75k8wmPNS5U5w,Max Soha,"1274 Amsterdam Ave, New York, NY 10027",40.811302,-73.958183,365,4.0,10027
v64bMLxutTS2MWIrywBczA,Piccolo Cafe,"313 Amsterdam Ave, New York, NY 10023",40.7804139,-73.9803013,442,3.5,10023
g5RqTm1v8Stsm3MXL19Adw,Roman's,"243 DeKalb Ave, Brooklyn, NY 11205",40.68959,-73.96953,209,3.5,11205
GVF4kvXupD18afjpLiPLHA,Marco Polo Ristorante,"345 Court St, Brooklyn, NY 11231",40.6821975708008,-73.9956817626953,95,4.0,11231
RVKZSIN16FNL0ZXD6OUMrA,The Sosta,"186 Mott St, New York, NY 10012",40.72075,-73.9957,162,4.0,10012
65RUNbor7l0IJcRrd4itTQ,Louie and Chan,"303 Broome St, New York, NY 10002",40.7187118,-73.9924058,217,4.0,10002
Qbnb7rRbvNg5WUoKLzz7gQ,Oro Restaurant & Lounge,"41-17 Crescent Street, Long Island City, NY 11101",40.7514791,-73.9395537,103,4.0,11101
rZ9OFoSqy8u4WECfh--ylg,Marta,"29 E 29th St, New York, NY 10016",40.7445882,-73.9847936,674,4.0,10016
cp72DAW5Ndt9T625RNsMsg,Sottosuolo NYC,"122 E 27th St, New York, NY 10016",40.74211,-73.98368,37,4.0,10016
hhqUkocxtcnILE4hKFCoPg,Tutto il Giorno,"114 Franklin St, New York, NY 10013",40.7186352360374,-74.0060071866319,66,3.5,10013
g4Pwc2mE1yUYXhqPrm53zA,Alex's Italian Restaurant & Brick Oven Pizza,"346 Grove St, Jersey City, NJ 07302",40.7204665872675,-74.0428332530666,426,4.0,07302
-0fjWWC2SY6kNxGfD8PKGg,Palermo Restaurant & Bar,"2392 21st St, Astoria, NY 11105",40.7769088448014,-73.9212289547099,131,4.5,11105
7Tu5l9UfWVi_v3m4TwJAxQ,Caffe dei Fiori,"973 Lexington Ave, New York, NY 10021",40.76935,-73.9627,62,4.5,10021
7S8g0G_Ndc3DS-kqsozq8Q,83 1/2,"345 E 83rd St, New York, NY 10028",40.775354,-73.951216,134,4.0,10028
BA0_zeBrnugK2l0HHp38mw,Via Della Pace,"48 E 7th St, New York, NY 10003",40.7277013287721,-73.9877394513958,449,4.0,10003
U8Ljrx-w5otdMZNFhw5piw,La Villa,"261 5th Ave, Brooklyn, NY 11215",40.6743319055498,-73.9816949398812,446,4.0,11215
xRiLLXjeM2wOvVTYJH2__A,Barboncino Pizza & Bar,"781 Franklin Ave, Brooklyn, NY 11238",40.67209,-73.95731,790,4.5,11238
YvSCXoj-z1eS2soiXQSIFQ,49 Monroe,"49 Monroe St, New York, NY 10002",40.7118467,-73.9937348,124,4.5,10002
ZlwjT-jygnYqM5qDE0CuLQ,Gigino Trattoria,"323 Greenwich St, New York, NY 10013",40.71726,-74.01055,229,3.5,10013
CseCPJgmN-DPKZNJk_9gTA,Chef Andrea,"7312 13th Ave, Brooklyn, NY 11228",40.6213375722958,-74.006541911779,62,4.0,11228
JBthOvTegHbrLDiVaCAy5Q,Bigoi Venezia,"1415 Second Ave, New York, NY 10021",40.77007,-73.95778,100,4.5,10021
nVtJOWn3XlL6MSZ-YnU6iA,Da Francesco,"442 Graham Ave, Williamsburg, NY 11211",40.718334,-73.944686,60,4.0,11211
-Td-YEPTOUq2H3LRWgRxUw,Non Solo Piada,"302 W 37th St, New York, NY 10018",40.75414,-73.99245,184,5.0,10018
SPYMe1nvAEFfgacIqSsHIg,Gastroteca,"33-02 34th Ave, Astoria, NY 11106",40.7587532028653,-73.925540484488,690,4.0,11106
acXWoQ2wZnpzRV-0V58YTQ,Bevacco,"60 Henry St, Brooklyn, NY 11201",40.6992863863707,-73.9921883493662,209,3.5,11201
xbrQ2dHuQoFJmNxAuOky4A,Vic's,"31 Great Jones St, New York, NY 10012",40.72683,-73.99328,327,4.0,10012
CZOZ_iVcW7EH4U_lyPj4lg,Zio Ristorante,"17 W 19th St, New York, NY 10011",40.7396006,-73.9925876,253,4.0,10011
5DoCTugT9AF-P3VspApsyQ,Aita Trattoria,"798A Franklin Ave, Crown Heights, NY 11238",40.6712095108944,-73.9579255586597,113,4.0,11238
e_2o3neKJ5vwDXKd70XLBg,Uncle Peter's,"83-15 Northern Blvd, Jackson Heights, NY 11372",40.75598,-73.88382,156,4.0,11372
QGRrPt4QwJNxmpM1urPxQA,Two Toms Restaurant,"255 3rd Ave, Brooklyn, NY 11215",40.6780586242676,-73.9853210449219,66,4.0,11215
SzH79XjUPoTYBnE3dybRsw,Della,"1238 Prospect Ave, Reeve Place, Brooklyn, NY 11218",40.652842,-73.97655,87,4.0,11218
KL6AUMQI_Ae7_brkK0fy_w,La Vela Dining & Bar,"558 11th Ave, New York, NY 10036",40.761082,-73.997872,149,4.0,10036
bH6kFlRLtfIo2dtjs1gJ8g,Dolce Vita Restaurant & Bar,"5811 Ave N, Brooklyn, NY 11234",40.619697,-73.918792,23,4.5,11234
M1DtTHfV7hstQypHpx9DqA,Pretto,"417 Amsterdam Ave, New York, NY 10024",40.78365,-73.9777299,57,4.0,10024
qtdR-eDXwbzWQvUzVXQE6w,Ogliastro,"784 Washington Ave, Brooklyn, NY 11238",40.674397,-73.963448,150,4.0,11238
tsvElYYtUBAEdfK6plnxlg,Villa Mosconi,"69 Macdougal St, New York, NY 10012",40.72859,-74.002,149,4.0,10012
gqTikTCIS01E2m20PzHoDQ,Tarallucci e Vino - East Village,"163 1st Ave, New York, NY 10003",40.72896,-73.98454,241,4.0,10003
X8Hl9OezX-Yr9Jir3fsF7g,Posto,"310 2nd Ave, New York, NY 10003",40.73483,-73.98282,546,4.0,10003
geNwD4ySIwA732eK2CvDZw,B Squared,"679 9th Ave, New York, NY 10036",40.7615509,-73.9906616,266,4.5,10036
E5rmVdrCn-0uwD2M9nkXdw,Da Capo,"1392 Madison Ave, New York, NY 10029",40.7877696714384,-73.9538384601474,159,4.5,10029
mc6-ig757TzhPpJ7TV3pEQ,Sal Anthony's,"226 3rd Ave, New York, NY 10003",40.73658,-73.98502,35,4.0,10003
UQZmhaPAMdZabid6ccvhTg,Il Punto Ristorante,"507 9th Ave, New York, NY 10018",40.75612,-73.99467,278,4.0,10018
Nzz7O9jSdfSOaPL5huYcSg,Errigo's,"502 Bay St, Staten Island, NY 10304",40.6298,-74.07682,56,4.5,10304
v1M1HIQBVwYatEF_iOmedw,ViceVersa,"325 W 51st St, New York, NY 10019",40.7635858415079,-73.9866799425418,217,4.0,10019
e7jRn5TNlF84k7PuvJ1MOA,Manducatis Rustica,"46-33 Vernon Blvd, Long Island City, NY 11101",40.7458575124991,-73.9528775638914,163,3.5,11101
hFmz7HH2og9hn7xNNv20yw,Il Porto,"37 Washington Ave, Brooklyn, NY 11205",40.6974427,-73.9675197,256,4.0,11205
wp5BpfUi9Aa4T0Gk0bnhag,Altesi Downtown,"200 Spring St, New York, NY 10012",40.72496,-74.00341,21,4.5,10012
cGqMEMQFtkB3hIGfLy2R3A,Bar Pitti,"268 Ave Of The Americas, New York, NY 10014",40.729047,-74.002153,855,3.5,10014
GZvelhGenbfJxc4_SG_RJw,Cielo At the Mayfair,"242 W 49th St, New York, NY 10019",40.761195,-73.9859352,349,4.0,10019
d5ya04K-2A_hI3Xzqe1HeA,Caffe Buon Gusto,"236 E 77th St, New York, NY 10075",40.77249,-73.95713,300,4.0,10075
dvkQIG20RjgNi-SwRr_1CQ,MAMO Restaurant,"323 W Broadway, New York, NY 10013",40.72186,-74.00382,198,4.0,10013
ZhjRaJkfCIVopvamUzrEsA,San Gennaro Trattoria Restaurant Bar,"2329 Arthur Ave, West Bronx, NY 10458",40.8540465225016,-73.8889484480023,114,4.0,10458
iV5yy8EbjsPoYWtjRhB61Q,Nica Trattoria,"354 E 84th St, New York, NY 10028",40.7758882,-73.9514507,104,4.5,10028
TZto7AjdA337XIw66AOpUw,Scalinatella Restaurant,"201 E 61st St, New York, NY 10065",40.7627823203802,-73.9654829353094,222,4.0,10065
14nTZtIl6T6V2YX6B9_WaA,Tali Restaurant,"77 Lexington Ave, New York, NY 10010",40.74121,-73.98321,50,4.0,10010
77llOAEwInvK-oC2AHZ4nQ,Coppola's,"378 3rd Ave, New York, NY 10016",40.74165,-73.98154,245,3.5,10016
RtfjlBlSUizdQp9_k3_wHg,Nicandra's,"264 Irving Ave, Brooklyn, NY 11237",40.69962,-73.915939,120,4.5,11237
_KIjhnsaui-wF9OePRZ5NA,Gottino,"52 Greenwich Ave, New York, NY 10011",40.7358,-74.00036,265,4.0,10011
OwDRIugcA4LkUuTRqpJsog,Naked Dog,"47 Java St, Greenpoint, NY 11222",40.7312720665479,-73.9593493647979,135,4.5,11222
Dng_LID2JNnc6M6A1FB19Q,Come Prima Ristorante,"903 Madison Ave, New York, NY 10021",40.7721165011105,-73.965037390213,60,4.5,10021
Dpn3cs2D-AfFAGDOTix8og,Polpette,"483 Amsterdam Ave, New York, NY 10024",40.7858352585311,-73.9761673098832,197,4.0,10024
oqA75iXtO_h8YnsLmjLk8w,Coco Pazzo,"160 Prince St, New York, NY 10012",40.72596,-74.00143,15,4.0,10012
rnKaWpMX5OZlQkKVZa-o3A,Claudine's,"311 Smith St, Brooklyn, NY 11231",40.681266784668,-73.9939117431641,105,4.0,11231
zj8Lq1T8KIC5zwFief15jg,Prince Street Pizza,"27 Prince St, New York, NY 10012",40.7229087705545,-73.9944863319397,1720,4.5,10012
Q-yTbpW4vrq80oRW40W_Pg,L'albero Dei Gelati,"341 5th Ave, Brooklyn, NY 11215",40.671932,-73.9836569,238,4.5,11215
He5DhOW-vf1WHjzQ_NMnTA,Il Bambino,"48 W 8th St, New York, NY 10011",40.73313,-73.99867,143,4.5,10011
RUfsaabXoeH_FDKS8ocWjA,D'Amore Winebar & Ristorante,"118 E 116th St, New York, NY 10029",40.7986510380525,-73.9424410834908,191,4.5,10029
xzN2k19JXDYjOWAhNw62aw,Adoro Lei,"287 Hudson St, New York, NY 10013",40.725612,-74.007916,206,4.5,10013
I0ysLuN8qsg8JNdTQzewjw,Armando's Restaurant & Bar,"143 Montague St, Brooklyn, NY 11201",40.694821,-73.993564,155,3.5,11201
xsQTIeq-WLkp4ParkTQpMQ,Pizzarte,"69 W 55th St, New York, NY 10019",40.7629335072372,-73.9776668697596,857,4.0,10019
wLzJbddDixAEZrF7VT6_hw,Bono Trattoria,"3658 Broadway, New York, NY 10031",40.8301996389829,-73.9473449424522,213,4.5,10031
mYQMjrtHp8vsEKKNsRz1XA,Union Pizza Works,"423 Troutman St, Brooklyn, NY 11237",40.7073067,-73.922154,203,4.0,11237
FhXjAc6nKLf414KxYujUHw,Roberta's,"261 Moore St, Brooklyn, NY 11206",40.705043534338,-73.93357123374,2311,4.0,11206
M4pCWzdBCkp2g_d834a7Hw,Sauce,"78 Rivington St, New York, NY 10002",40.720512182453,-73.989400288419,566,3.5,10002
lP4ynyBoeFPywLg78XkMmw,Cibo E Vino,"2418 Broadway, New York, NY 10024",40.790206,-73.9749174,240,4.0,10024
HV8xairb2qct7wSHqNwqXw,Levante,"26-21 Jackson Ave, Long Island City, NY 11101",40.7476347,-73.9417521,94,4.0,11101
yH6t1JWcwkdWG4CS5KPvow,Adrienne's Pizzabar,"54 Stone St, New York, NY 10004",40.7043362,-74.0101733,1354,4.0,10004
DtnlLLvcqeEUIyZTypHnzw,Il Mulino New York - Downtown,"86 W 3rd St, New York, NY 10012",40.729807,-73.999159,478,4.0,10012
JliAIBARXi9uISzNG26DVw,Elio's,"1621 2nd Ave, New York, NY 10028",40.7767632368091,-73.9526632086427,179,4.0,10028
N-rwVhnEtXg8yY_TlB_KZw,Del Posto,"85 10th Ave, New York, NY 10011",40.7434155953035,-74.007533013261,1252,4.0,10011
wTNUUoYUl3gox-gUAZ9bAA,Peppino's Brick Oven Pizza & Restaurant,"469 5th Ave, Brooklyn, NY 11215",40.668221,-73.986936,353,4.5,11215
qZK3e3kZAuyVlNrFNjBZ3A,Enoteca on Court,"347 Court St, Brooklyn, NY 11231",40.6821365356445,-73.9957122802734,225,4.0,11231
vyoA8dxwScuMV_AsTcjQcg,L & B Spumoni Gardens,"2725 86th St, Brooklyn, NY 11223",40.5946594104612,-73.9815150338912,2916,4.0,11223
kDJbzzmCEjFbyDQ-lSygvw,Fresh Salt,"146 Beekman St, New York, NY 10038",40.70707,-74.00244,357,4.0,10038
ynw6F1JVJN54IvwLeHRn5A,Biagio's Trattoria,"8402 Cooper Ave, Glendale, NY 11385",40.7105953741027,-73.8653643749718,39,4.0,11385
a-XBTXQM4qigxUgpTmS7Fg,Codino,"62 Carmine St, West village, New York, NY 10014",40.7300643486969,-74.0037936652668,20,4.0,10014
MeQU-nGaQvX12VXYOyzavQ,Gruppo,"98 Ave B, New York, NY 10009",40.72474,-73.98161,207,4.5,10009
U53RFC-tC2SFsBRI3v7WhA,La Bella Vita,"524 4th Ave, Brooklyn, NY 11215",40.6676,-73.9913,40,4.5,11215
xrgzB0pvsxeGEIboE6I2gg,Patsy's Pizzeria,"450 Dean St, Brooklyn, NY 11217",40.6817474365234,-73.9762573242188,397,4.5,11217
KpBfFpjzsGvvqAzCasVW0g,Extra Virgin,"259 W 4th St, New York, NY 10014",40.7353962496717,-74.0031888223197,1113,4.0,10014
wXYSjd-tYEEFErI6RIDEYw,Annabelle's Pastaria,"717 86st, Brooklyn, NY 11228",40.61883,-74.021346,57,4.0,11228
1kdIzJU01DuTm7WhPSdiBQ,Anchor Heights,"575 W 207th St, New York, NY 10034",40.86666,-73.92037,113,4.0,10034
MoyxzhaYIsJx-p9IuGGK4w,Stella 34 Trattoria,"Macy's 6th Floor - 35th Broadway Entrance, 151 W 34th St, New York, NY 10001",40.7503815541938,-73.9880325325882,541,3.5,10001
DOmcM66qzKHbj-n1LTJyHQ,Tutta Pesca,"155 3rd St, Hoboken, NJ 07030",40.7401,-74.03134,134,4.5,07030
LYkx0_gmy-RrJQBPYzulNg,Ponte Vecchio Restaurant,"8810 4th Ave, Brooklyn, NY 11209",40.62117,-74.02923,129,3.5,11209
yIFI6afTRP-tBhY6WsUOPg,Popina,"127 Columbia St, Brooklyn, NY 11231",40.687361962701,-74.0014251909241,27,4.0,11231
v3YA3DF9wKY_aWCKNdDEPg,Casa Toscana,"1000 8th Ave, Ste 6, New York City, NY 10019",40.7685425,-73.9817814,45,4.5,10019
C3E8CVVwzKtOv_sRR1WuRQ,Salumeria Rosi,"283 Amsterdam Ave, New York, NY 10023",40.77932,-73.9809,413,4.0,10023
4ixWiPyYysS2i8LAg4qzrQ,La Villetta,"398 E 52nd St, New York, NY 10022",40.7549171,-73.9650879,57,4.0,10022
cyLw0vW5MrsF35-A6Dy03w,Saggio,"829 W 181st St, New York, NY 10033",40.8514099281625,-73.9395604556239,499,4.0,10033
2Nwmd7-1d1rI6lb9QSSYYA,Sola Pasta Bar,"330 W Broadway, New York, NY 10013",40.72229,-74.00403,70,4.0,10013
Jwb556DrGTEZryeV7XgZmQ,Bar Primi,"325 Bowery, New York, NY 10003",40.7256393,-73.9917221,473,3.5,10003
hwR54p9AWwrOATd41l351w,Alberto Restaurant,"9831 Metropolitan Ave, Forest Hills, NY 11375",40.71109,-73.8534899,143,4.0,11375
cDUait5j29Pe0QynQ3JtYQ,Gradisca,"126 W 13th St, New York, NY 10011",40.73709,-73.99863,344,4.0,10011
YdFFUP3-PBzBsE3j75XwaQ,Panzerotti Bites,"235 Smith St, Brooklyn, NY 11231",40.68374,-73.99234,25,5.0,11231
Tgi-rDD3mxFi9uGybZxdaQ,Faun,"606 Vanderbilt Ave, Brooklyn, NY 11238",40.67829,-73.969,87,4.0,11238
pGr5QuQU7Ur5GHLvXbT8bw,Paulie Gee's,"60 Greenpoint Ave, Brooklyn, NY 11222",40.729546,-73.958568,1052,4.5,11222
P4hm-IKNMbBbtfWSvPf25A,The Meatball Shop,"84 Stanton St, New York, NY 10002",40.7214961,-73.9887357,2638,4.0,10002
b6Tpm0PsDqLYZFUuqNte-g,River Deli,"32 Joralemon St, Brooklyn, NY 11201",40.69368,-73.99858,159,3.5,11201
Dexx-i2E_lb2GZ-C3o8T1Q,Fusco,"43 E 20th St, New York, NY 10003",40.7388499173673,-73.9884278923273,95,4.0,10003
eVk4F9ixl89zyUHJ1G2Aiw,Luzzo's,"211 1st Ave, New York, NY 10003",40.730551,-73.9834846,983,4.0,10003
1J_KV9SicsnyXYdH3uprIw,Sociale,"72 Henry St, Brooklyn, NY 11201",40.698697,-73.9925669,185,3.5,11201
VqnPcfqYltgxAkIuTaGkYg,Tre,"173 Ludlow St, New York, NY 10002",40.72184,-73.987714,425,3.5,10002
hVqZ4vihjL1gFTD-KdX-Tw,Gennaro,"665 Amsterdam Ave, New York, NY 10025",40.79178,-73.9718,336,3.5,10025
HD0e3eHwv573qHZOJJitWg,Aurora Soho,"510 Broome St, New York, NY 10013",40.723543,-74.003199,367,4.0,10013
C-V8rvmamxMzu7EoQkcFrg,Kestè Wall Street,"77 Fulton St, New York, NY 10038",40.7089545,-74.0050526,66,4.0,10038
vjj3MMPkULJUCv8xf3XRiA,San Matteo Takeaway,"1731 2nd Ave, New York, NY 10128",40.7801684,-73.9502899,135,4.0,10128
HiNUBUR1hFwScd_OvVLQAg,La Pecora Bianca,"1133 Broadway, New York, NY 10010",40.74358,-73.9892,352,3.5,10010
19zArMBG2qW2k16Y0i2aBA,Obicà Mozzarella Bar Pizza e Cucina,"928 Broadway, New York, NY 10010",40.7400486,-73.9893018,346,4.0,10010
IEb99GmOvg585gmwmm4iNA,Azalea Ristorante,"224 W 51st St, New York, NY 10019",40.7621418,-73.9841952,208,4.0,10019
fTNOwKJ9YbxoIShABCKXdA,DeGrezia Ristorante,"231 E 50th St, New York, NY 10022",40.755512,-73.969415,81,4.0,10022
17OE3Vgm-QN98Ro0AS-A3g,Provini,"1302 8th Ave, Brooklyn, NY 11215",40.66336,-73.9815,163,3.5,11215
5pRxCYQppSq0czjFDN9X3Q,Campagnola Restaurant,"1382 1st Ave, New York, NY 10021",40.768817,-73.954833,183,4.0,10021
E1RvMNZ4re4TnKarjx14Zw,Cacio E Pepe,"182 2nd Ave, New York, NY 10003",40.7307352,-73.9862681,392,3.5,10003
5ZEFbq_AQV5VQFG2JKYzlA,Giorgio's of Gramercy,"27 E 21st St, New York, NY 10010",40.7394209879325,-73.9885425567627,687,4.0,10010
n_NIY1KTi-R5DPkduEUKIw,Ovest Pizzoteca,"513 W 27th St, New York, NY 10001",40.7507476806641,-74.0030212402344,447,4.0,10001
iT4INdhYuFBHZ8mvbVi1xQ,LaVellutataNyc,"172 5th Ave, Ste 2, Brooklyn, NY 11217",40.6774992255457,-73.979902186133,21,4.5,11217
JYE16G0z-wo1MTyYchhVCA,Manzo Ristorante,"200 5th Ave, New York, NY 10010",40.7423476668244,-73.9898968277084,289,3.5,10010
LnMRZhKtOrW1eL04FiPYTg,Senza Gluten,"206 Sullivan St, New York, NY 10012",40.7290911050589,-74.0003699151971,383,4.5,10012
rupPZLhd0oRSAmVDaeYaGA,Bocca di Bacco Hell's Kitchen,"828 9th Ave, New York, NY 10019",40.7662168,-73.9867943,568,3.5,10019
H5L18XZRHh_13HaeeHH_sQ,Casa Di Napoli,"703 32nd St, Union City, NJ 07087",40.774128,-74.0310378,96,4.5,07087
BgGz5IdV53bGb4o7opR5zg,Arturo's,"106 W Houston St, New York, NY 10012",40.7273563342024,-74.0004944801331,581,4.0,10012
8nXo6lNJlXQQIdy8Kf7J9Q,Tessa,"349 Amsterdam Ave, New York, NY 10024",40.7814059,-73.97918,271,4.0,10024
fU22eRTnKLT2C-OFJ6eUGQ,Saraghina,"435 Halsey St, Brooklyn, NY 11233",40.6835063,-73.9352006,729,4.0,11233
OLa3-KQO9rHjswo55E3Jgg,Trattoria La Sorrentina,"7831 Bergenline Ave, North Bergen, NJ 07047",40.80174,-74.00698,436,4.5,07047
3xd4L_TdfdhuCjAzJecs6A,Michaelangelo's Little Italy,"2477 Arthur Ave, Bronx, NY 10458",40.8573321267268,-73.8862630999689,157,3.5,10458
CAGAWbPE8uPr2VVvEnv0ZA,Ribalta Pizza,"48 E 12th St, New York, NY 10003",40.7334346,-73.9916923,435,4.0,10003
3VdNPvj6d6EJ2fZj7p1n9g,La Villa Pizzeria & Restaurant,"6610 Ave U, Brooklyn, NY 11234",40.61692,-73.9098,228,4.0,11234
Q9F2ocrmYuGt1yn3M7MOBw,Lucali,"575 Henry St, Brooklyn, NY 11231",40.6818,-74.00024,1043,4.5,11231
8tcpvFS5jngoszrHThgfkQ,Cafe Lore,"4601 4th Ave, Brooklyn, NY 11220",40.648499,-74.010056,69,4.0,11220
yREKlCvSuaxcRSVRsCIDUQ,Acqua Santa,"556 Driggs Ave, Brooklyn, NY 11211",40.717086,-73.956756,220,3.5,11211
uRFXDG0vmjKQ39DlGVn0dg,Mezzogiorno,"2791 Broadway, New York, NY 10025",40.80285,-73.96798,48,4.0,10025
1-tTWAxTZq3fpt-Pm1iHjA,Sapore Di Italia,"245 Harman St, Brooklyn, NY 11237",40.698984,-73.920113,79,3.0,11237
dsgzaF4lODoOj1Mu1Cf_bQ,La Casa Bella,"2579 Cropsey Ave, Brooklyn, NY 11214",40.590666,-73.991456,198,3.5,11214
7vq2CNM69sdrXrtbT2-qEQ,Campania Coal Fired Pizza,"9824 4th Ave, New York, NY 11209",40.6136093,-74.0333099,368,4.5,11209
3P8hb1ZOCA8IjEGfqpSpxg,Sfoglia Restaurant,"1402 Lexington Ave, New York, NY 10128",40.783535,-73.952719,248,4.0,10128
I6Wg1NFYAAVzM2OpsdqcXA,Grand Vin,"500 Grand St, Hoboken, NJ 07030",40.74331,-74.0351699,201,4.0,07030
F3Zznc4UYAfbdiTgb09-NA,Fratelli,"2507 Eastchester Rd, Bronx, NY 10469",40.862992,-73.8435449,59,4.0,10469
hbMvJ5pGYlyFC7jJBJp3SA,Nonna Delia's,"18-32 College Point Blvd, College Point, NY 11356",40.78224,-73.84619,20,4.5,11356
d7Asc4q2ImoPlA_BhfroTQ,Kesté Pizza & Vino,"271 Bleecker St, New York, NY 10014",40.73154,-74.00293,1232,4.0,10014
KpBHy3eOYh1OV0_6Smxs3w,Nino's Restaurant,"1110 Hylan Blvd, Staten Island, NY 10305",40.598277,-74.07989,116,4.5,10305
G-b9kvnRh0pLi4fsdcmwjg,Joseph's,"3 Hanover Sq, New York, NY 10004",40.70499,-74.00961,58,4.0,10004
u6q1s6c0H9wQwFUJJzAiOw,Gigino At Wagner Park,"20 Battery Pl, New York, NY 10004",40.7052055368065,-74.0184892569177,221,3.5,10004
l1EdTmBBFzxQIZDftPZeUQ,Ristorante Morini,"1167 Madison Ave, New York, NY 10028",40.7806,-73.95882,224,4.0,10028
ADHX7nBixDPVlq3OXhny0g,Faicco's Italian Specialties,"260 Bleecker St, New York, NY 10014",40.73113,-74.00306,408,4.5,10014
S8OKQ5S40oZ1Rr5RbC0jdg,Motorino,"349 E 12th St, Ste A, New York, NY 10003",40.73039,-73.98381,1013,3.5,10003
OsEMa_QiTDiwSmoRmf8O3g,Dante at GENUINE,"191 Grand St, New York, NY 10013",40.71907,-73.99724,34,4.5,10013
6aVgixwks8EgirE1JtyDAQ,John's of 12th Street,"302 E 12th St, New York, NY 10003",40.73061,-73.98554,577,3.5,10003
nTCFXqiQPTvDfnAxHfA64A,Trattoria Tra di Noi,"622 East 187th St, Bronx, NY 10458",40.8548889160156,-73.8868713378906,110,4.0,10458
iFuHNNBLQkeQOn0KoXHhUA,Boccone Mediterranean Tapas & Wine Bar,"506 9th Ave, New York, NY 10018",40.75603,-73.99398,56,4.0,10018
-KrQ1gOiyXCbffsWyc5SNQ,The Leopard at des Artistes,"1 W 67th St, New York, NY 10023",40.773515,-73.978841,191,4.0,10023
OCTiJwvjoK81WoDwsTkFvA,Paesano of Mulberry Street,"136 Mulberry St, New York, NY 10013",40.718624,-73.997665,470,3.5,10013
DM0Xv203Eza58x6Fvie75A,Mamma Lucia's Restaurant,"1701 Foster Ave, Brooklyn, NY 11230",40.63515,-73.96117,38,3.5,11230
hq09sqXaYiEogbTrrJ9X5g,Da Capo,"322 Columbus Ave, New York, NY 10023",40.77972,-73.97752,53,4.5,10023
ONEe1U1fNGT80jAEE0sCrg,Vapiano,"113 University Pl, New York, NY 10003",40.7343869142235,-73.9921539848726,996,3.5,10003
InmlNc9iVwzXBqRIB8T19g,Russo's Mozzarella and Pasta,"363 7th Ave, Brooklyn, NY 11215",40.6657676696777,-73.9822006225586,167,4.0,11215
V6e4UBjFzdrcUgKbJTrZpA,Fumo Pizza-Bar-Pasta,"1600 Amsterdam Ave, New York, NY 10031",40.82144,-73.95062,219,4.0,10031
NBgDoMiF4tj5aS7V7zayoA,Antica Ristorante,"370 Canal St, New York, NY 10013",40.7206611633301,-74.0043869018555,40,4.0,10013
MPblH3J1kpbNGL4C4U7RAQ,IL Carino Restaurant,"1710 2nd Ave, New York, NY 10128",40.77945,-73.95019,22,4.0,10128
E2zKMwHhz4--dyplQ7gf8A,Pappardella,"316 Columbus Ave, Ste 1, New York, NY 10023",40.7792833,-73.9776967,468,3.5,10023
XWNamjD2mSpk56B6z1HT9w,Laico's,"67 Terhune Ave, Jersey City, NJ 07305",40.703212,-74.095046,156,4.0,07305
bW3mY-voyav37nU0uaLmNQ,Dante,"79-81 Macdougal St, New York, NY 10012",40.72879,-74.00165,176,4.0,10012
AbNXFnI4OlWZvsQLGKf64w,Dino,"222 Dekalb Ave, Brooklyn, NY 11205",40.68941,-73.97047,229,3.5,11205
BhvF_YZoZiPkXJNsb-0pBA,Grotto Italian Table,"8901 3rd Ave, Brooklyn, NY 11209",40.6211584141351,-74.0317816651649,103,3.5,11209
t-St6BqNMgecsvICeGgreA,Joe's of Avenue U,"287 Avenue U, Brooklyn, NY 11223",40.597072,-73.97367,153,4.0,11223
Ty1MvJz88DeNmX0eDHeMyQ,Pietros Ristorante,"232 E 43rd St, New York, NY 10017",40.7506055,-73.9721964,91,4.0,10017
NPnWsPxOpG91GHx74S27Uw,Sottocasa Pizzeria - Harlem,"227 Lenox Ave, New York, NY 10027",40.8055499,-73.94746,153,4.5,10027
8IzVyi4kNO_lpEW1r_DbiA,Houdini Kitchen Laboratory,"1563 Decatur St, Ridgewood, NY 11385",40.694148,-73.902337,253,4.0,11385
M8YwGe-wHwBGRz3DbTpqDQ,Piccolo Sogno,"195-14 47th Ave, Flushing, NY 11358",40.7524351,-73.7858436,137,4.0,11358
LdWyeeV8DuYINKVTghFwrg,Canaletto,"208 E 60th St, New York, NY 10022",40.76174,-73.96569,51,4.0,10022
O5Cm2yU32-Epf4HKEFAJEQ,Il Postino,"337 East 49th St, New York, NY 10017",40.75373,-73.96749,86,4.0,10017
hvMbN42EaHlZoHMS3degLg,Bar Tano,"457 3rd Ave, Brooklyn, NY 11215",40.6712112426758,-73.9909439086914,217,4.0,11215
AYBRN8pKB8_ZfcCks17OmQ,Beebe's,"38-28 27th St, Long Island City, NY 11101",40.7547438,-73.9358372,10,4.5,11101
q1F09j4JFRZQJ2e11m7lGg,Salvi Restaurant,"4220 Quentin Rd, Brooklyn, NY 11234",40.6176699,-73.93189,25,4.0,11234
FER-iaOyA8JFH-DL5vaKIQ,Vesuvio,"7305 3rd Ave, Brooklyn, NY 11209",40.632565,-74.027047,255,3.5,11209
foRWizWrQ32g6Vv4g9UTnA,Nocciola Ristorante,"237 E 116th St, New York, NY 10029",40.7973406168505,-73.9382923766971,183,4.0,10029
P1hH4JDmzCX9hs-lZ-GCNw,Prima Sarabella Italian Cuisine,"41-08 Greenpoint Ave, Sunnyside, NY 11104",40.740013718605,-73.9237853139639,35,3.5,11104
TCPZLIG8mkX0iOD4K3_wAw,Basilio Inn,"6 Galesville Ct, Staten Island, NY 10305",40.59747,-74.06372,66,4.5,10305
x6_1vzeCH9YvbvIBmSr2iA,DOC Wine Bar,"83 N 7th St, Brooklyn, NY 11249",40.719761,-73.960367,187,4.0,11249
I0N_QtJy7sLiuW_vmvRIhg,Maruzzella,"1483 1st Ave, New York, NY 10075",40.7713240506196,-73.953663110733,70,4.0,10075
qYDoWRdntIApGW6fEUHWIQ,Biricchino,"260 W 29th St, New York, NY 10001",40.7488743960857,-73.9954686909914,85,3.5,10001
v2w_gKvV5kCk8a-nGDPrEQ,Numero 28 Pizzeria,"107-12 70th Rd, Forest Hills, NY 11375",40.7208543,-73.8454939,47,4.0,11375
vEYEs9McRtRdKBp2XfRNZA,Finestra Restaurant,"1370 York Ave, New York, NY 10021",40.76751,-73.95288,59,4.0,10021
Y3xDbSHXs6apMA4JLGJZ1Q,Sac's Place,"2541 Broadway, Astoria, NY 11106",40.7628982173022,-73.9270855469213,423,4.0,11106
EL5Y6BSinmUte5VW4Eh54Q,Frank,"88 2nd Ave, New York, NY 10003",40.7268483205383,-73.9887172038649,594,3.5,10003
rhCs1nF5KTNwx-4YeyoK3g,Bartolino's Fine Italian Pizza,"3411 Broadway, Astoria, NY 11106",40.7607386113415,-73.9223789038732,31,4.0,11106
NqYET0OyJKGfm9dJG8iDcg,Piccola Cucina Enoteca,"184 Prince St, New York, NY 10012",40.726284,-74.002151,177,4.0,10012
lSelLuQYWfKMrYO_Dka_Qw,Fiamma 41,"214-26 41st Ave, Bayside, NY 11361",40.763566,-73.769942,323,4.0,11361
gjZpcE-X4zQOEqWQPelLgg,Max,"181 Duane St, New York, NY 10013",40.71755,-74.01013,378,3.5,10013
I8wk0uwL6R0RhSprSlPvNw,Roman Nose,"125 Newark Ave, Jersey City, NJ 07302",40.7200279,-74.0433197,587,3.5,07302
yT9z4u2p259TvziLijowoA,Trattoria Spaghetto,"232 Bleecker St, New York, NY 10014",40.7301959175117,-74.0024488560668,279,4.0,10014
HVSi0slZGjJ6Ktg3AEixGg,Graziella Restaurant,"3329 Francis Lewis Blvd, Flushing, NY 11358",40.766785,-73.789634,59,4.0,11358
YoLxK5EG8UgnueKAe7hj0g,I Sodi,"105 Christopher St, New York, NY 10014",40.7334747314453,-74.005012512207,247,4.0,10014
9mawr6QwVHm5q8JRXPFjPA,San Marino Restaurante,"66 Charlton St, New York, NY 10014",40.72697,-74.00611,115,4.0,10014
gsL7pm6HbYqKH-gx-FjxlQ,Scarlatto,"317 West 46th St, New York, NY 10036",40.76036,-73.98869,367,3.5,10036
GAvyDral555vltKrupUcjw,Osteria Laguna,"209 E 42nd St, New York, NY 10017",40.750647,-73.9737998,280,3.5,10017
QgEre4IFSHxbUvHMe8S12g,Pinocchio Ristorante,"1748 1st Ave, New York, NY 10128",40.77965,-73.94695,184,4.0,10128
Fu7J2Fwoj_S6Jpg9dULzKg,Pepe Rosso To Go,"149 Sullivan St, New York, NY 10012",40.727127,-74.001518,336,4.0,10012
T_vLaKsuyJPDpsrSZuc7WA,Battello,"502 Washington Blvd, Jersey City, NJ 07310",40.7254501288668,-74.0325578867018,400,4.0,07310
jo30o65XFWmgMJS86zFiFQ,La Mela Ristorante,"167 Mulberry St, New York, NY 10013",40.719928,-73.997352,645,3.5,10013
gTEoEsssfbjl76Opf5bP9g,L'Amico NYC,"851 6th Ave, Eventi Hotel, New York, NY 10001",40.7472104,-73.9899179,296,3.5,10001
iEUXrUUqGfUhpgYYSr5Zig,Da Nico Ristorante,"164 Mulberry St, New York, NY 10013",40.71963,-73.99691,561,3.5,10013
HPvz-PHt2PYWV_X9eQSlnA,Il Cortile Restaurant,"125 Mulberry St, New York, NY 10013",40.7179895,-73.9982094,377,3.5,10013
os09iVkYkzIg9G1xEIepiA,Momofuku Nishi,"232 8th Ave, New York, NY 10011",40.7443479,-73.9988054,390,4.0,10011
JSexQM-wn8HvWmfxu_m5ZA,Gnocco,"337 E 10th St, New York, NY 10009",40.72713,-73.9802799,377,3.5,10009
l6hRu596DATgmdc7gngg0A,Papazzio Restaurant,"3938 Bell Blvd, Bayside, NY 11361",40.764232,-73.771625,135,4.0,11361
XO43OJWeAOS0Z-hqzhKgvQ,Zio Toto,"8407 3rd Ave, Brooklyn, NY 11209",40.624732,-74.030242,146,3.5,11209
c3D2ckzacnPtdGIM8tb-_w,B Side Pizza & Wine Bar,"370 W 51st St, New York, NY 10019",40.76394,-73.9883399,837,4.5,10019
1htK0vS5FAHaXXtpAQperQ,Bread & Tulips,"365 Park Ave S, New York, NY 10016",40.7421,-73.98461,213,4.0,10016
Tias1_QRB5L-gzoSNNhOMA,Petrarca Cucina E Vino,"34 White St, New York, NY 10013",40.718898,-74.004585,130,3.5,10013
LSOpxBBa217HxnJ7VnY2WQ,Il Violino,"180 Columbus Ave, New York, NY 10023",40.77506,-73.98087,204,3.5,10023
megxpLA5KciBJbW-jNm2RQ,Arno Ristorante,"141 W 38th St, New York, NY 10018",40.7534599,-73.98842,167,3.5,10018
OmB4X44Ru8gjD6qgSNlXdg,Primola,"1226 2nd Ave, New York, NY 10065",40.7638675,-73.9616489,93,3.5,10065
PccEsrdFfkB3UsVndMspLQ,Porto Bello Restaurant,"208 Thompson St, New York, NY 10012",40.72871,-73.99932,85,4.0,10012
Kz7hn14j6KXf_gYeC99rUg,I Trulli,"124 E 27th St, New York, NY 10016",40.74207,-73.98361,312,3.5,10016
aHRcUI_UqFNV87GF7WRIDQ,Aunt Jake's,"47 W 8th St, New York, NY 10011",40.73329,-73.99852,53,4.0,10011
vLaaNR3rTeSFEZe_nn43BA,Motorino,"139 Broadway, Brooklyn, NY 11211",40.710559,-73.963462,198,4.0,11211
tRIHhPKryUZ56SfIz6mLiA,Angelo's Coal Oven Pizzeria,"117 W 57th St, New York, NY 10019",40.76492,-73.97794,642,4.0,10019
Sp-vnk-waTvKblG_88M4TA,Trapizzino,"144 Orchard St, New York, NY 10002",40.72043,-73.98894,139,4.5,10002
i3IK1tCkwyXRx7VU1edlMQ,Trattoria Saporito,"328 Washington St, Hoboken, NJ 07030",40.74104,-74.03013,217,3.5,07030
tqrMjK1oyuvFGSz3Jxms1Q,Numero 28 Pizzeria & Cucina,"68 Bergen St, Brooklyn, NY 11201",40.6868349327148,-73.990774645363,90,4.0,11201
pIrSHmLYW6Bdjiz-HHWd1Q,Bettolona,"3143 Broadway, New York, NY 10027",40.8141032,-73.9597766,256,4.0,10027
oNJOIxuZlrTYFWwAFMTdkQ,Tre Otto,"1410 Madison Ave, New York, NY 10029",40.788425,-73.953643,118,3.5,10029
cbhdOSn-nezgnH3lxPJM_g,Sotto Voce,"225 7th Ave, Brooklyn, NY 11215",40.6698989868164,-73.9787445068359,270,3.5,11215
WHQpLvxkCK_BMtF8pIShnQ,Carroll Place,"157 Bleecker St, New York, NY 10012",40.7286329,-73.9998011,773,4.0,10012
kvFHJYo9rXuqgJkPIlHJeg,IL Nocello Ristorante,"1427 150th St, Whitestone, NY 11357",40.7880986,-73.8132761,38,4.0,11357
aPmTYRZ6mYgpvpNpmI_Wdg,Da Noi,"214 E 49th St, New York, NY 10017",40.75471,-73.97067,120,4.0,10017
cpN0ixPR2l3QFA8Uf1BhCQ,Luna Rossa,"347 E 85th St, New York, NY 10028",40.77653,-73.9504,88,4.0,10028
WyyJAcQwfOxKPLgIYetSKA,Caffe Buon Gusto,"151 Montague St, Brooklyn, NY 11201",40.6947326,-73.993266,147,3.5,11201
HUY6yj38FXqAQvWUdgL0xA,Pizzeria Sirenetta,"568 Amsterdam Ave, New York, NY 10024",40.788814,-73.974594,200,4.0,10024
S4uozcDEieoaXxIJ6TsUoQ,Dellarocco's Brick Oven Pizza,"214 Hicks St, Brooklyn, NY 11201",40.6950309,-73.9961252,203,4.0,11201
8PyKaU-YM0HOAfxWsjcwmg,Cipriani Le Specialita,"120 E 42nd St, New York, NY 10017",40.7516113,-73.9767134,108,4.0,10017
DF7PV0DE9z0LM4ae6XYeYg,Harry's Italian,"2 Gold St, New York, NY 10038",40.707555318913,-74.006898168681,510,3.5,10038
yc4vsT-Q4Ej1_9hr94DxkQ,Sotto 13,"140 W 13th St, New York, NY 10011",40.73729,-73.9991299,732,4.0,10011
kVrTff8uDMSBAaceBwQ7dg,Saluggi's,"325 Church St, New York, NY 10013",40.720104,-74.003578,524,4.0,10013
fmdEiai0e4agyTEqFUWJmw,Amarone Ristorante,"686 9th Ave, New York, NY 10036",40.76168,-73.98992,257,3.5,10036
r_fUOUhz-pHZxFDV1hzy0w,Peasant,"194 Elizabeth St, New York, NY 10012",40.72171,-73.99428,631,4.0,10012
vBg0q84nTn0IJH7fJbE4ow,Giulietta's Cantina Club,"13 Carmine St, New York, NY 10014",40.73059,-74.00239,52,4.5,10014
EdnuIsyyDI51N1723Vd1HQ,Anda Lucia Bar & Lounge,"1336 Bushwick Ave, New York, NY 11207",40.68568,-73.911933,22,4.5,11207
7FSuPGQTUxe-A2Km_SVTNQ,Trattoria Ora,"18-01 Astoria Blvd, Queens, NY 11102",40.7724,-73.92729,10,5.0,11102
q8wlm_XUjmSsTdTQKt2qbQ,Erminia Italian Restaurant,"250 E 83rd St, New York, NY 10028",40.77594,-73.95346,156,4.0,10028
vXYFa2qzppkGiOiVPrLwDQ,Don Peppe,"135-58 Lefferts Blvd, South Ozone Park, NY 11420",40.6689814908178,-73.8216334221041,459,4.0,11420
UjzSeETESWzramhdOdWKKQ,Tartina,"1034 Amsterdam Ave, New York, NY 10025",40.8035073,-73.9636591,222,4.0,10025
J9xVQScnr0lYWl61_mLXMA,Lido,"2168 Frederick Douglass Blvd, New York, NY 10026",40.8049797781916,-73.9548260014624,798,4.0,10026
FRp1NwIyp6tkDU986cJkXQ,Piccola Cucina Estiatorio,"75 Thompson St, New York, NY 10012",40.724655,-74.003112,29,4.0,10012
kS04TICXd1-0iZ4rgEWmvQ,Gabriel's Bar & Restaurant,"11 W 60th St, New York, NY 10023",40.7692581,-73.9826142,134,4.0,10023
-8_vEcBA2Lqd8786S-Ss-g,Novita Restaurant,"102 E 22nd St, New York, NY 10010",40.73918,-73.98629,270,4.0,10010
syu8oCU9h3X9hfAE_lpADw,Terra Wine Bar,"222 W Broadway, New York, NY 10013",40.7191707644465,-74.0065013183027,281,3.5,10013
bEXTA_Gwo2oVg4gnFd9fNA,Ai Fiori,"400 5th Ave, Ste 2, New York, NY 10018",40.750159,-73.983882,1060,4.0,10018
VtJd1l64kqUUyWacwK0J2Q,Veniero's,"342 E 11th St, New York, NY 10003",40.72941,-73.98454,1777,4.0,10003
msLQTFzfsHUUr8UdLnQDTA,Champignon,"202 7th Ave, New York, NY 10011",40.7432661,-73.9964326,213,3.5,10011
-VvrQWfbkQWeuGC4L0KcfQ,il Buco Alimentari & Vineria,"53 Great Jones St, New York, NY 10012",40.7264539,-73.992549,472,3.5,10012
wOq-Jt26jnFf_rhF4r5D6w,Scampi,"30 W 18th St, New York, NY 10011",40.73902,-73.99358,58,4.0,10011
gvech-Yi4S2GwRH7zj_lMw,Pinsa Lab,"86 5th Ave, Brooklyn, NY 11217",40.6805064,-73.9779106,75,5.0,11217
v0hkLLp0W7Hdi0NOhuXvGQ,Fontanas Pasta & Heros,"2359 Ralph Ave, New York, NY 11234",40.6206692162697,-73.9173977165707,36,4.0,11234
oexDsgqmXc9Qe3fy3uYx7g,F & J Pine Restaurant,"1913 Bronxdale Ave, Bronx, NY 10462",40.8489099,-73.86237,413,3.5,10462
uq-jeUk2yNOrfUKdRIpE_w,Piccoli,"157 A Prospect Park SW, Brooklyn, NY 11218",40.654819,-73.973477,72,4.0,11218
p-BHJdQ57eM-WlKTP7B44w,Antika Pizzeria,"36-08 30th Ave, Astoria, NY 11106",40.7646599,-73.9172211,347,4.0,11106
vKB3oazhT0m-WfqqE8LAkQ,Tre Fontane,"222 Ave U, Brooklyn, NY 11223",40.596449,-73.975789,85,3.5,11223
XyICIfSun7HWtBEUFux2PQ,Bocca Di Bacco,"169 9th Ave, New York, NY 10011",40.7445631,-74.0030779,145,3.5,10011
GqTgQEqwf3k5JyE7DHDhjw,Numero 28 Pizzeria Napoletana,"176 2nd Ave, New York, NY 10003",40.73041,-73.98595,487,4.0,10003
yoowH3_Q775Kg-dRhF_q7Q,Nobody Is Perfect,"235 E 4th St, New York, NY 10009",40.72346,-73.9827,154,3.5,10009
vAMKgIUWCrYxjfhceCCNAQ,Sandro's,"306 E 81st St, New York, NY 10028",40.7742854,-73.9537163,54,4.0,10028
ZMFj1vCfQWdSAtwyjqRUlw,Felidia,"243 E 58th St, New York, NY 10022",40.76036,-73.96512,453,4.0,10022
na-2_gQCY7ccS2ZkLJDumQ,Waldy's Wood Fired Pizza & Penne,"800 6th Ave, New York, NY 10001",40.7457666039821,-73.9906402533629,723,4.0,10001
m4MPLIv-WsGdcB7GReE06Q,Quattro Gatti Restaurant,"205 E 81st St, New York, NY 10028",40.77552,-73.95587,72,4.0,10028
0UIUQWmwf_yxyygLXPQ0Hw,Mimmo Cucina Italiana,"1690 York Ave, New York, NY 10128",40.77764,-73.94565,22,4.5,10128
HV5DMBmEpQ_Nu6NSekJquA,Harry's Italian,"225 Murray St, New York, NY 10282",40.7151660438782,-74.0147876008234,197,3.5,10282
h9rymMeMUMOxQ9d93U0YDg,Baker & Co,"259 Bleecker St, New York, NY 10014",40.7313423,-74.0028996,524,4.0,10014
JjpCF17AxF6RPOyimw21cw,Basil Brick Oven Pizza,"28-17 Astoria Blvd, Astoria, NY 11102",40.770946,-73.92001,416,4.0,11102
PuJex8WQ5_Qym17HP03mXg,Fortina-Brooklyn,"445 Albee Square W, Dekalb Market Hall, Brooklyn, NY 11201",40.69085,-73.98329,52,4.0,11201
xQ445GaWVN5Aa3sFX9OoIg,Buvette,"42 Grove St, New York, NY 10014",40.732852,-74.004213,1412,4.0,10014
CygcAgexrpJGY8iWp7QqnA,Antonucci Cafe,"170 E 81st St, New York, NY 10028",40.77574,-73.95689,104,4.0,10028
OY70rYTi8Qtmb89IWRUOaQ,Ponti Rossi,"132 W 48th St, New York, NY 10036",40.758963,-73.9825605,24,4.0,10036
ip733nbgjaMMazfQ-Ibhgg,Fiat Cafe,"203 Mott St, New York, NY 10012",40.7214697,-73.9956631,464,4.0,10012
NBeQAgTo9hlJxgp9xbMO-w,Tufino Pizzeria Napoletana,"36-08 Ditmars Blvd, Astoria, NY 11105",40.773986,-73.908126,292,4.0,11105
iKv8UHV5jTqf4QGdwCmQ-w,Sofias Ristorante Italiano,"8406 3rd Ave, Brooklyn, NY 11209",40.624919,-74.030799,122,4.0,11209
k4ZtjGOt0e7oQ7Ut81ZwTA,Neapolitan Express,"29 2nd Ave, New York, NY 10003",40.7247,-73.99087,2,5.0,10003
vBL9aYuf1e1cJbC8Z9TWvw,Cipollina Gourmet,"116-09 Queens Blvd, Forest Hills, NY 11375",40.7161371542532,-73.8331417133898,117,5.0,11375
fyC2cBsQ0FsMJmv0jSworg,Donna Margherita,"1304 2nd Ave, Ste A, New York, NY 10065",40.76652,-73.9598,27,4.0,10065
UpnHg_984LLZ28-kBB5MSQ,Bella Luna,"574 Columbus Ave, New York, NY 10024",40.78769,-73.97152,191,4.0,10024
4QGn3I-ZvdFkxgEniosyuA,Jimmy's Trattoria,"45-73 Bell Blvd, Bayside, NY 11361",40.7585738,-73.7682438,116,4.0,11361
EZNw56hywTm1PJNYOMbfHQ,Morso,"420 E 59th St, New York, NY 10022",40.7587013,-73.9609375,102,3.5,10022
QkchiQerGaNJYMiKQhKMXw,Pasta e Vino,"136 Newark Ave, Jersey City, NJ 07302",40.72046,-74.04345,82,3.5,07302
mYRdxAQaO_o-Fp5NdKskUQ,Areo Ristorante,"8424 3rd Ave, Brooklyn, NY 11209",40.6242192079206,-74.0306423558197,137,3.5,11209
BiNtCoIGo00Lua93hOrj3Q,Bella Via Restaurant,"4746 Vernon Blvd, Long Island City, NY 11101",40.744281,-73.953903,292,3.5,11101
i5cdbiw1KRyg4w0X44ZBwA,Mezzaluna,"1295 3rd Ave, New York, NY 10021",40.771125,-73.959251,107,3.5,10021
sB8-R8-FYj-kJrSzTlbmgw,Coppola's West,"206 W 79th St, New York, NY 10024",40.783115,-73.9789374,236,3.5,10024
EsHcyOLHaK76bQuU7bwiTw,Tonys Pizzeria & Restaurant,"443 Knickerbocker Ave, Brooklyn, NY 11237",40.699286,-73.918724,236,4.5,11237
FwMyv3CVIxbI6ngodw7s3w,Panino Rustico,"8222 17th Ave, Brooklyn, NY 11214",40.610494,-74.003153,364,4.5,11214
VWErTDzcg23iiohqyc1AQQ,Rossopomodoro,"118 Greenwich Ave, New York, NY 10011",40.7384763561724,-74.0020935999868,167,4.0,10011
ysqgdbSrezXgVwER2kQWKA,Juliana's Pizza,"19 Old Fulton St, Brooklyn, NY 11201",40.7026153030093,-73.9934159993549,1606,4.5,11201
MH08_pIRKsUSwfkVYxUE7w,VINATERÍA,"2211 Frederick Douglass Blvd, New York, NY 10026",40.8064392068585,-73.9540110111145,339,4.0,10026
w7vYoiRdKyF3QJfNlAc0sg,Peppino's Brick Oven Pizza & Restaurant,"7708 3rd Ave, Brooklyn, NY 11209",40.629867,-74.02874,179,4.0,11209
evhkqaDVxi3LGb39Rw-_Aw,Fazio's,"709 Knickerbocker Ave, Brooklyn, NY 11221",40.69442,-73.91039,72,4.5,11221
Vm6_cXz8hbvZhot0m1aaRg,Italianissimo Ristorante,"307 E 84th St, New York, NY 10028",40.7765,-73.95197,81,4.0,10028
iBPQRnM_TMQX6tYdjCbCXA,Vai Restaurant,"429 Amsterdam Ave, New York, NY 10024",40.78416,-73.97736,320,4.0,10024
zRhDhbutGwC9KY_U_5VYdw,Mani In Pasta,"14 E 37th St, New York, NY 10016",40.74985,-73.98229,53,4.5,10016
Irw7QQBsndbB2ATXeB4pYA,Da Tommaso NYC,"903 8th Ave, New York, NY 10019",40.7646068,-73.9845812,132,3.5,10019
XxZOE4Cq6ZBWGxZ4AVDNng,La Sorrentina Ristorante,"6522 11th Ave, Brooklyn, NY 11219",40.628303,-74.006637,60,3.5,11219
FogLdooqSzKbmkwMGSwDiQ,Razza Pizza Artigianale,"275 Grove St, Jersey City, NJ 07302",40.7177490485075,-74.0441924355125,607,4.0,07302
7cOibAFiGbSsSWo27SLIgw,Tutto A Modo Mio,"482 Bergen Blvd, Ridgefield, NJ 07657",40.8244151,-73.9972534,265,4.0,07657
qx0CdTCbAM7Dzas1naOaeA,D. Coluccio & Sons,"1214-20 60th St, Brooklyn, NY 11219",40.62974,-74.00029,49,4.5,11219
hrURGD65Y3P226i0rQoX6g,Lucca,"3019 Westchester Ave, Bronx, NY 10461",40.8476799,-73.83176,39,4.0,10461
ezu7Ai6ADfHDYCklvuipWA,Arturo's,"1617 York Ave, New York, NY 10028",40.775478,-73.947847,52,4.0,10028
NZaq_ygLr4N8-blY5dGx-g,Paul's On Times Square,"136 W 42nd St, Hilton Garden Inn, New York, NY 10036",40.75522,-73.98539,242,4.0,10036
QUTSHrHw3qRZjf749VM1Yg,Serafina Osteria,"38 E 58th St, New York, NY 10022",40.76273,-73.97155,100,3.5,10022
H5d3Lgkk8onZ6tq0mUyvig,Panello,"720 Monroe St, C105, Hoboken, NJ 07030",40.7469495,-74.0380045,149,4.0,07030
bJwcf-h06wX6Yo3kVkajww,Giando on the Water,"400 Kent Ave, Brooklyn, NY 11211",40.710766325009,-73.9692663444951,147,3.5,11211
76y4aMBY0lT6zfJLy2EH-Q,Le Zie,"172 7th Ave, New York, NY 10011",40.74246,-73.9970699,274,3.5,10011
FDFE8nqstVJT07LquQ2kBA,Buon Appetito,"906 Broadway, Bayonne, NJ 07002",40.67835,-74.10568,135,4.0,07002
njVlqTOaQUEjDRJV_KRcjA,Mamma Guidara's,"10 W 28th St, New York, NY 10001",40.7448463439941,-73.9882659912109,14,3.5,10001
jDIVPYpxQAk1HUAi0NIlQw,Pazza Notte,"1375 Avenue Of The Americas, New York, NY 10019",40.7635099,-73.978,591,3.5,10019
Fuk7jDI2XAcvHxqau5rKWA,Acqua Restaurant NYC,"21 Peck Slip, Water St, New York, NY 10038",40.7082567,-74.001797,269,4.0,10038
TsO4cjFld0Plznpimtn8uw,Anchor Wine Bar,"3508 Broadway, New York, NY 10031",40.8253616094589,-73.9510338753462,220,4.0,10031
cEWF70xMbOvOhr4CDkroOw,Pronto Pizzeria,"45-19 28th Ave, Astoria, NY 11103",40.76346,-73.90886,109,4.5,11103
wRVSvTxBp62m0UEqRUUUJQ,Dee's,"107-23 Metropolitan Ave, Forest Hills, NY 11375",40.7098,-73.84524,393,4.0,11375
gfrkJA7Kh3k8Kyl7aJ0m1Q,Frankie & Ava's Italian Eatery,"208 Washington St, Hoboken, NJ 07030",40.73918,-74.0307,113,4.0,07030
9lDqOfKeEB15AWfsWIq8mA,Mario's Restaurant,"2342 Arthur Ave, Bronx, NY 10458",40.8542,-73.88857,168,3.5,10458
4K0doiBddco60kl0W04a3Q,Il Forno Hell's Kitchen,"713A 8th Ave, New York, NY 10036",40.7591217147251,-73.988647715231,155,3.5,10036
mkS--Oq4UYJMQizSaKJXEw,Enzos of Arthur Avenue,"2339 Arthur Ave, Bronx, NY 10458",40.8543499,-73.8887699,158,3.5,10458
MHbxF-ZS918-ZoXKQPBEyg,Sotto Le Stelle,"44-07 Queens Blvd, Sunnyside, NY 11104",40.74371,-73.92008,94,4.5,11104
LQakVBka0axtU8IwOzXyIg,Barge Inn,"324 3rd St, Jersey City, NJ 07302",40.72386,-74.04891,61,4.0,07302
dmCqbWwTFHqri_6fr3KlNw,Patrizia's of Brooklyn - Staten Island,"4255 Amboy Rd, Staten Island, NY 10308",40.54748,-74.157845,329,4.0,10308
Wcnig4807LHZyk8z08IeGw,Arthur Ave Fiasco,"2376 Arthur Ave, Bronx, NY 10458",40.854825,-73.887862,35,4.0,10458
YT5Ywu9y190B4IGIlBetzA,Morandi,"211 Waverly Pl, New York, NY 10014",40.73534,-74.00151,578,3.5,10014
nSk_zCJESMKGLHyJTPPlZA,Bottino,"246 10th Ave, New York, NY 10001",40.74845,-74.00321,229,3.5,10001
YmUKLOG4sTAShvyURuq2zw,Trattoria Bianca,"481 8th Ave, New York, NY 10001",40.75263,-73.99338,90,3.0,10001
R86cJxXMiXRyqzlF24esgg,Lexington Pizza Parlour,"1590 Lexington Ave, New York, NY 10029",40.789283,-73.9487429,141,4.0,10029
Tp3MF3DNXuW41A10PQ2nFw,Amali,"115 E 60th St, New York, NY 10022",40.763437,-73.968511,316,4.0,10022
m3PS0tIaa0ChcP8Y5S-DrQ,MAMA'S TOO!,"2750 Broadway, New York, NY 10025",40.80084,-73.96766,42,4.5,10025
eLoZU4zi5RykCFw0aJXGyA,Cafe al Mercato,"2344 Arthur Ave, Bronx, NY 10458",40.854118,-73.888175,25,4.5,10458
CmYpP-qt1YFDBrBjdPL97A,Amorina Cucina Rustica,"624 Vanderbilt Ave, Brooklyn, NY 11238",40.6775499,-73.96911,211,4.0,11238
UU-VNxsgJ3BWgpVQbUChig,Beccofino,"5704 Mosholu Ave, Bronx, NY 10471",40.9053542,-73.9004326,106,3.5,10471
WI_AYZSW8ds1GjFq3PQJRA,Satis Bistro,"212 Washington St, Jersey City, NJ 07302",40.7144521915461,-74.037669933778,545,4.0,07302
COVGkASgKQ5aqIGn9evmgA,Arancini Bros,"120 Essex St, New York, NY 10002",40.7191861062729,-73.9876049843888,23,4.5,10002
39g9pylx-xeIHihTe76HbA,Fermento,"358 Kosciuszko St, Brooklyn, NY 11221",40.6917733468969,-73.9399936793105,6,4.5,11221
FpgzHQMSNTTjagrKXxOw5A,San Matteo Pizzeria e Cucina,"1559 2nd Ave, New York, NY 10028",40.7746799,-73.95443,167,3.5,10028
j9uuXTmbt4JCphSVg5DpgQ,Cafe Rustico II,"25 W 35th St, New York, NY 10001",40.7498588562012,-73.9852828979492,92,4.0,10001
YE4pvo8ectzEaRYGqUgFcA,Felice 64,"1166 1st Ave, New York, NY 10065",40.76253,-73.95948,238,3.5,10065
qWUJq3Kc8kNV3FUsLeesjg,Primo Amore Italian Restaurant,"34-33 Francis Lewis Blvd, Flushing, NY 11358",40.765817,-73.7891481,55,4.0,11358
J0SZjwe0Rc-H6mzl0oByxQ,Mimi's Italian Restaurant & Piano Bar,"984 2nd Ave, New York, NY 10022",40.75611,-73.96728,218,3.5,10022
gGkkzrcHh1xS-S55OsuKsw,Santina,"820 Washington St, New York, NY 10014",40.7396,-74.00844,524,3.5,10014
F2YbqhVr6hBsFrDCyr6M_w,The Meatball Shop,"200 9th Ave, New York, NY 10011",40.7459138,-74.0015369,778,4.0,10011
kikXOpALcO9TueZ62M4YsQ,Casalinga Brick Oven Pizza,"3007 Fort Hamilton Pkwy, Brooklyn, NY 11218",40.64852,-73.9787,29,4.0,11218
dMrF98GlFYIPKYY5NVZHbw,Gemma,"335 Bowery, New York, NY 10003",40.72609,-73.99166,575,3.5,10003
bjzBkF2FFMsdkCk50xseFQ,Etcetera Etcetera,"352 W 44th St, New York, NY 10036",40.75926,-73.99115,381,4.0,10036
WBXiKTyBBE5GUN_c2VD5bA,Trattoria Il Mulino,"36 E 20th St, New York, NY 10003",40.7385529485744,-73.9886629208922,176,3.5,10003
VUcrIqM40HWWb2sxAS9mLA,Cesca,"164 W 75th St, New York, NY 10023",40.7802345045165,-73.9796698035772,246,3.5,10023
Pb2HqSO0SP8HymbZM099hg,Tommaso Restaurant,"1464 86th St, Brooklyn, NY 11228",40.611598,-74.010337,83,3.5,11228
gED3ep4dX5FP_FYVTkokIQ,Salvatores of Soho,"3738 Riverdale Ave, Bronx, NY 10463",40.8875232,-73.90704,227,4.0,10463
0O0DV4tKQkp2lS2wGcg_7A,Bin 5,"1233 Bay St, Staten Island, NY 10305",40.613335,-74.065258,248,4.5,10305
FR_E9_Z3WG5HjeIUyTKSWw,Antonio's Kitchen,"76-08 21st Ave, East Elmhurst, NY 11370",40.770286,-73.8935501,88,4.0,11370
W9wDa_EB0h2p5JG6P6lyZw,Pescatore,"955 2nd Ave, New York, NY 10022",40.75538,-73.96852,311,3.5,10022
q0HBfS9eJ9AeuaWQ3Ronqw,Joe G Pizza & Restaurant,"244 W 56th St, New York, NY 10019",40.76564,-73.9830099,104,4.0,10019
OWAfPuMnSqn7Ru1_RNH8fw,Aria Wine Bar,"369 51st St, New York, NY 10019",40.7641085,-73.9881285,275,3.5,10019
u74abDRXzo1vVhM-m5To5g,Dolcino Trattoria Toscana Italian,"517 2nd Ave, New York, NY 10016",40.7416076660156,-73.9785766601562,81,3.5,10016
o1DJJkCqfKRMojvnJyh_JA,Bar Basso,"235 W 56th St, New York, NY 10019",40.76598,-73.98255,50,4.0,10019
x3PALeokwz7fFFLjfiDBAw,E Pasta,"20 Maiden Ln, New York, NY 10038",40.70903,-74.00925,11,4.0,10038
pgtgGAAuHMT0KTm3CDPQsA,Sorellina,"1036 Washington St, Hoboken, NJ 07030",40.74977,-74.02746,145,3.5,07030
eby9pE6FzmwjoYRVzDpzew,Sette Mezzo,"969 Lexington Ave, New York, NY 10021",40.7693455389848,-73.9627933502197,55,4.0,10021
TSj3yJCHBMEQ0caKtMX9ng,Gerbasi Ristorante,"2389 Arthur Ave, Bronx, NY 10458",40.8552899,-73.88795,90,3.5,10458
505bv6h3VnN6SekdHCr8Sw,Nocello,"257 W 55th St, New York, NY 10019",40.7654190063477,-73.9833374023438,125,3.5,10019
ayh9M3Lmc8Zxa7wsvKH55Q,Piccolino Ristorante,"3935 Amboy Rd, Staten Island, NY 10308",40.5510515,-74.1496965,54,4.0,10308
ulRvnTAkE8Msjc3fTmphVw,Mulino Bar & Restaurant,"133 5th Ave, Brooklyn, NY 11217",40.678514,-73.978737,80,3.5,11217
Tw7bIH7iyI1mK1o070w1Vw,La Strada Restaurant,"139 New Dorp Ln, Staten Island, NY 10306",40.57379,-74.11571,66,4.5,10306
I32XfrAZXTwkEavbnb9viQ,Desy's Clam Bar,"562 Grand St, Brooklyn, NY 11211",40.71089,-73.94927,63,3.5,11211
mOoZZa6WIsgihc_TqyQcXw,Tarallucci E Vino -Union Square,"15 E 18th St, New York, NY 10003",40.7381367771909,-73.9907283558044,326,3.5,10003
PerCtK0A27ku-cmBVMh5tw,Porto Salvo,"424 E 161st St, Bronx, NY 10451",40.82374,-73.91291,66,4.5,10451
xJm9JJLooQ1Sc7ncM2-JJA,The Meatball Shop,"170 Bedford Ave, Brooklyn, NY 11249",40.7182749,-73.9576213,1132,4.0,11249
THLkx3bx6UOquZb2EzN4ig,Hugo & Sons,"367 7th Ave, Brooklyn, NY 11215",40.6656761169434,-73.9822845458984,187,3.5,11215
XzkmePjJC0ryuqZp5qd12A,Fresco By Scotto,"34 E 52nd St, New York, NY 10022",40.758874588912,-73.974435582671,228,3.5,10022
penftLPo6kx6qCtbsuyLog,Petaluma,"1356 1st Ave, New York, NY 10021",40.7682492,-73.9553474,191,3.5,10021
uMO1DfoytP6Hw5bl_z7mDQ,Cafe Michelina,"423 Bloomfield St, Hoboken, NJ 07030",40.74222,-74.03009,170,3.5,07030
7pvTicRAhXB1Ld74MWjkXQ,Davio's Northern Italian Steakhouse,"447 Lexington Ave, New York, NY 10017",40.75304,-73.97472,233,4.0,10017
wnXdgkWYN0p4SEl_AdMzLA,Bar Toto,"411 11th St, Brooklyn, NY 11215",40.6669,-73.984672,244,3.5,11215
DJsoVgloRAOrsGM2HQKDoA,Fino Ristorante,"82 Beaver St, New York, NY 10005",40.705204,-74.00844,66,3.5,10005
VlaFY8ASgOvrzZ3I8sG6Dg,Bella Napoli,"257 7th Ave, New York, NY 10001",40.745071,-73.994621,158,3.5,10001
ywP0OEqRC6sp4NK1-QhW-g,Parm,"Brookfield Pl, 250 Vesey St, New York, NY 10080",40.7144510120714,-74.0161083107869,254,3.0,10080
rlfy0pXZvvkDe7OWsM_tnw,Lorenzo's Italian Restaurant,"58 County Ave, Secaucus, NJ 07094",40.76776,-74.068064,69,4.0,07094
WIhm0W9197f_rRtDziq5qQ,Lombardi's Pizza,"32 Spring St, New York, NY 10012",40.721515,-73.995735,5401,4.0,10012
MT_a_Tg3ENdxqZFQyJocgQ,Joanne Trattoria,"70 W 68th St, New York, NY 10023",40.7744659,-73.98034,362,3.5,10023
xEdAaZTNNHRZbvzBuSjcCg,House of Lasagna,"334 Lexington Ave, New York, NY 10016",40.7497237,-73.9775697,113,3.5,10016
db2QLlK-0xL7Vq0jG-CcJQ,Café Bello,"1044 Avenue C, Bayonne, NJ 07002",40.68387,-74.10426,118,4.0,07002
Wg4Mu4YXL_1NSVF9LAH_9w,Bartolino's Italian Ristorante,"34-15 Broadway, Astoria, NY 11106",40.7607799,-73.92226,155,3.5,11106
Zoa_uv-VRNfI3AL0b6xZcQ,Armando's Kitchen,"1345 Rockaway Pkwy, Brooklyn, NY 11236",40.64723,-73.904011,7,4.5,11236
6n7D4amt9vEruR73tt3S9w,Cafe Fiorello,"1900 Broadway, New York, NY 10023",40.7713747769594,-73.9819805324078,629,3.5,10023
hot1lIebdQNau05onRum7w,Otto Strada,"743 Park Ave, Hoboken, NJ 07030",40.7466038915745,-74.0311605558891,200,3.5,07030
zTK8reqKrmV7U71YVHYYjg,Armani Ristorante,"717 5th Ave, Giorgio Armani, New York, NY 10022",40.7618463161798,-73.9742299834671,180,4.0,10022
xKZSIBaGkXX7ppIceuhiQQ,Buca di Beppo Italian Restaurant,"1540 Broadway, New York, NY 10036",40.7580514,-73.9848436,246,3.5,10036
iUlNDgKCLJt7F9y5fw2NYA,Osteria della Pace,"101 Liberty St, Fl 3, 4 World Trade Ctr, New York, NY 10281",40.7096522,-74.0112896,42,3.0,10281
XoTaRa6uAkO2OBV0-rYv3w,Numero 28 Upper West Side,"660 Amsterdam Ave, New York, NY 10025",40.79175,-73.97228,170,3.5,10025
rGQIi-BaMwwWvd_J4hOO5A,GP's Restaurant,"236 Pavonia Ave, Jersey City, NJ 07302",40.7276548852554,-74.0439375500829,241,4.0,07302
MA1QPFSYddVq_KzEldpcRg,Aria Wine Bar,"117 Perry St, New York, NY 10014",40.73512,-74.00671,593,3.5,10014
qUOxvK1j0F293sZk5PdSBg,Antico Noè,"220 E 53rd St, New York, NY 10022",40.75716,-73.96864,123,4.5,10022
uEKiv6WEPg9dWj10HCur5A,Table 87 Coal Oven Pizza,"87 Atlantic Ave, Brooklyn, NY 11201",40.691219329834,-73.9973449707031,202,4.5,11201
x5zOHDirJAMaKtu1TjAgug,Enzo's Of Williamsbridge,"1998 Williamsbridge Rd, Bronx, NY 10461",40.85413,-73.85412,85,4.0,10461
lTjmtiPVsXNnE_h7uzQr0Q,Aperture,"552 Court St, Carroll Gardens, NY 11231",40.675033,-73.999706,109,4.5,11231
y5b85IZGLxNdksDBFm1GBw,Gene's Restaurant,"73 W 11th St, New York, NY 10011",40.735408782959,-73.9977264404297,71,4.0,10011
mwvukHjc7Trs5fRbZ4-TsA,Fabbrica Restaurant & Bar,"44 N 6th St, Brooklyn, NY 11249",40.7197876739018,-73.9625863349716,208,3.5,11249
oIpNF3AJwqZlCs9fmpyFOQ,Pasquale Rigoletto Restaurant,"2311 Arthur Ave, Bronx, NY 10458",40.8538,-73.88925,150,3.5,10458
tLYvKy-KTS1iuDx9QWwoRw,Bistro Milano,"1350 Ave Of The Americas, New York, NY 10019",40.7626340639698,-73.9775298618572,163,3.5,10019
nw85LVh6H3JIiw3ugvhAmw,Lasagna Ristorante,"196 8th Ave, New York, NY 10011",40.7432136535645,-73.9996719360352,417,3.5,10011
8cnfXAq6ehOsGRw4rh-dzQ,Sam's,"238 Court St, Brooklyn, NY 11201",40.685920715332,-73.9945220947266,200,3.5,11201
_Klr6rynJ4b_oc7ehRPoZA,Paul & Jimmy's,"123 E 18th St, New York, NY 10003",40.73673,-73.98732,83,3.5,10003
M7bo7h-S4HqJfIYYghtXOQ,Blue Eyes Restaurant,"525 Sinatra Dr, Hoboken, NJ 07030",40.7415904281481,-74.0261629347709,188,3.5,07030
qTHBQdWfw1RSCjQwoUcLiw,Lucciola,"621 Amsterdam Ave, New York, NY 10024",40.79039,-73.97251,49,3.5,10024
ZQrmos0TEPCmMHQUreYvpw,Caffe Taci,"22 E 54th St, New York, NY 10022",40.7603492736816,-73.9743194580078,14,4.5,10022
an8TuHRg0e3cgiAE705ZDA,Fornino,"Pier 6 Brooklyn Bridge Park, Brooklyn, NY 11201",40.6928735340776,-74.0016932280972,167,4.0,11201
XcfZqLrXdABSZLViQ34VTw,Chelsea Ristorante,"108 8th Ave, New York, NY 10011",40.7406654953957,-74.001794680953,126,3.5,10011
6osYYrn77CbYPUrSnJOTBQ,Old Rose,"113 Jane St, The Jane Hotel, New York, NY 10014",40.73823,-74.00931,48,3.5,10014
u5zbsITgkFbAlRq0j-XE-g,Serafina Broadway,"210 West 55th St, New York, NY 10019",40.7645,-73.9819,472,3.0,10019
Zub6WrbrS_4XMI1mPbyeiw,La Panineria,"1 W 8th St, New York, NY 10011",40.7324876186231,-73.9967531074097,165,4.0,10011
TS2mqGtNhOzMKcSqJvrBPg,Ringolevio,"490 Humboldt St, Brooklyn, NY 11222",40.71907,-73.94337,222,4.5,11222
yXwzpfdsDQqg9k5odYonFw,Bricco Ristorante Italiano,"304 W 56th St, New York, NY 10019",40.766083,-73.984023,115,3.5,10019
JAWWRCjAjAIKOflewu2gFA,Nobodys Pizza,"136 Alexander Ave, New York, NY 10454",40.8072349,-73.9269925,88,3.5,10454
pC_QwLpeL2Enk4hBgDcRqQ,Da Marino,"220 W 49th St, New York, NY 10019",40.76102,-73.98526,295,4.0,10019
AV9x0hUE0yQUMjUGQNPexQ,Lamarca Cheese Shop,"161 E 22nd St, New York, NY 10010",40.73841,-73.9839499,107,4.5,10010
CGah1h1clhuptjHaecu6xw,Martina Pizzeria,"198 E 11th St, New York, NY 10003",40.7311478243198,-73.9883194379593,89,4.0,10003
ppUU-p6yH6IMa7d_UrYkaQ,Papa Pasquale Ravioli Co.,"7817 15th Ave, Brooklyn, NY 11228",40.615387,-74.004972,39,4.5,11228
nD2R18RIFOLRRfMVdXJNJg,Marie's 2,"5 Hyatt St, Staten Island, NY 10301",40.64224,-74.07674,28,4.5,10301
1EZRvi0aGxpPfXq2EkUtBw,Isola on Columbus,"994 Columbus Ave, New York, NY 10025",40.8012492,-73.9616237,124,4.0,10025
k1zrPPGGMQdlHopP3MnxrQ,Storico,"170 Ctr Park W, New York Historical Society, New York, NY 10024",40.7862739562988,-73.9758834838867,177,4.0,10024
d_omssKELuTvL9UGRfZ9VA,Harlem Industrial Kitchen,"123 E 110th St, New York, NY 10029",40.7952796270461,-73.9453241229057,1,5.0,10029
7QUfJwuPgiTYa96TUqmzvQ,Bella Napoli,"130 Madison Ave, New York, NY 10016",40.74579,-73.98474,194,3.5,10016
uboO7T3XSnl8iq0uQWhMXA,Café Altro Paradiso,"234 Spring St, New York, NY 10013",40.72549,-74.00489,105,3.5,10013
p4TYRKQ82N5Ntb6RPdLPMg,Bruno's Ristorante,"158-22A Crossbay Blvd, Howard Beach, NY 11414",40.6595993041992,-73.8433990478516,118,4.0,11414
0frCoaUJ_XWiz1BXiHBcwg,Ceci Italian Cuisine,"46 W 46th St, New York, NY 10036",40.7568271422022,-73.9809948205948,222,3.5,10036
IZ9-5z45wc3Oh_jlnX_Kcg,Giuseppina's,"691 6th Ave, Brooklyn, NY 11215",40.6603430973463,-73.9907741546631,245,4.5,11215
9DCZ8Ols3w1sfQBoKEq-hw,Vinum Restaurant & Wine Bar,"704 Bay St, Staten Island, NY 10304",40.62482,-74.07478,55,4.5,10304
KOaeW18qq4C03Dfd06IXPQ,Maria Pia,"319 W 51st St, New York, NY 10019",40.76343,-73.98655,353,3.5,10019
xC8eaH4nUfK68hocZBfBUw,Peperoncino,"72 5th Ave, Brooklyn, NY 11217",40.680807,-73.977714,190,3.0,11217
Kh0-HmlgmVUkRxR55_Vn1g,Patsy's Pizzeria,"2287 1st Ave, New York, NY 10035",40.79713,-73.93481,667,4.0,10035
rbIrit8gZwfyEOdEOeX7jg,Orso,"322 W 46th St, New York, NY 10036",40.759994,-73.989025,151,4.0,10036
LZcpNrQQqC5IWbE4c-9Cyw,Buchetta Brick Oven Pizza,"201 W 103rd St, New York, NY 10025",40.7987564,-73.9673846,192,4.0,10025
LyFVS_a089B96WTEGLNpeA,Ria Bella Pizza,"1049 Manhattan Ave, Brooklyn, NY 11222",40.7347748800472,-73.955205076056,100,4.5,11222
UrJkrJ5HsVGyLE2dogiUCA,Ambrosio Italian Restaurant & Banquet Hall,"2071 Clove Rd, Staten Island, NY 10304",40.6045827168281,-74.0833172111654,19,4.5,10304
ejuFKvSfGl0JMZO9yzSXNw,Louie's Pizza,"81-34 Baxter Ave, Elmhurst, NY 11373",40.7459,-73.8834,332,4.5,11373
e5VNqnVitx8OrnINaMMCsA,Fedoroff's Roast Pork,"178 N 10th St, Brooklyn, NY 11211",40.7189526,-73.9555245,129,4.5,11211
DLRbxg74oWNPQJdbSkTDxQ,Suprema Provisions,"305 Bleecker St, New York, NY 10014",40.7326925,-74.0036155,131,4.0,10014
w93lFfr90sFUTquw8UAHWw,Giacomo's Wood Fired Pizza & Trattoria,"7902 3rd Ave, Brooklyn, NY 11209",40.6285285949707,-74.0293273925781,162,3.5,11209
Lw58gDv9ipwtOcg2EIJp3w,Napoli Pizza & Pasta,"33-02 35th Ave, Astoria, NY 11106",40.75718,-73.92686,252,4.0,11106
D0LsGudLqLabXbhEPMkw6A,Aumm Aumm Pizzeria & Wine Bar,"7701 Broadway, North Bergen, NJ 07047",40.79789,-74.00231,240,4.5,07047
CjahRm-rdwS8IqGR-M0Dyg,AquaMarina,"4060 Broadway, New York, NY 10032",40.8433196,-73.9388948,92,3.5,10032
uPXehVdHJ_aM1V17iNfSSg,IL Valentino Osteria,"1078 1st Ave, New York, NY 10022",40.7592621,-73.961998,63,3.5,10022
UZyJLP50F9PiytmdQ8LXTw,Marcony,"184 Lexington Ave, New York, NY 10016",40.74487,-73.98118,123,3.5,10016
5z17B673aI4MSWkKB1DsjA,Caffe Rustico,"7-26 149th St, Whitestone, NY 11357",40.7939611,-73.8181798,33,5.0,11357
OHgGIQm3TLyBCi2oxgRYWg,Sirio Ristorante,"151 E 58th St, New York, NY 10022",40.761244329549,-73.9675754004307,62,4.0,10022
kLJfizeHMQqesp1K9mfUtg,Via Quadronno,"25 E 73rd St, New York, NY 10021",40.77277,-73.96514,455,4.0,10021
oEjWa3AETzPQfM3S1wRiLA,Due,"1396 3rd Ave, New York, NY 10075",40.77466,-73.95724,56,4.0,10075
jryzOo2UaHOeZqQkkezENA,Porsena,"21 E 7th St, New York, NY 10003",40.72866,-73.9894599,226,3.5,10003
KLRvWv8y0Vs3x-HDgmD0VA,Paul Michael Brick Oven Cafe,"85-19 126th St, Kew Gardens, NY 11415",40.7040268,-73.8252041,116,4.0,11415
I0i9YzRBQn6MKIUFIHpeBQ,Park Italian Gourmet,"60 W 45th St, New York, NY 10036",40.7562054271632,-73.9814829826355,175,4.0,10036
vFsjObMTImsnM_DzVo4N3g,Bocca Restaurant & Bar,"39 E 19th St, New York, NY 10003",40.73826,-73.98886,314,3.5,10003
DCiEo7qucPaEj7Gtdj1U9A,Sant Ambroeus,"1000 Madison Ave, New York, NY 10021",40.7752929376282,-73.9629447443084,319,4.0,10021
i6xP3ZfL78PXg2gjsOz-og,Noidue Carne,"141 W 69th St, New York, NY 10023",40.77625,-73.98146,10,4.5,10023
jMdziYLNYGDCegkFQ4lTQA,Serafina Tribeca,"95 W Broadway, New York, NY 10007",40.71566,-74.0089,40,3.0,10007
CfFjKWynWAFLO9mUTxe4Zg,Gaetana's,"143 Christopher St, New York, NY 10014",40.732952570801,-74.007623322014,244,3.5,10014
J9r0qorwR0tKOhrCcl1VGQ,Piccolo Cafe,"274 W 40th St, New York, NY 10018",40.7557818,-73.9904619,208,4.0,10018
Cnqy9w1BFXZFEaChfox0ow,Rosemary's,"18 Greenwich Ave, New York, NY 10011",40.7347241,-73.9997973,799,3.5,10011
Ei5qjq0qmfNLkdVoO-S5Tw,Raffetto's,"144 W Houston St, New York, NY 10012",40.72816,-74.00172,205,4.5,10012
IUMTe7g19htqG7MXrsP5NQ,Luna Piena,"243 E 53rd St, New York, NY 10022",40.75722,-73.96767,241,3.5,10022
02sAHm3_CsRKE2IeT5iaPA,Table 87 Coal Oven Pizza,"473 3rd Ave, Brooklyn, NY 11215",40.670664,-73.991371,243,4.0,11215
ft2OPgLsquG9d7XrBLULng,Alidoro,"18 E 39th St, New York, NY 10016",40.7510443031788,-73.9811161905527,161,4.0,10016
Rp-1kZ68rHia43PrOd3EEQ,Barilla Restaurants,"108 W 32nd St, New York, NY 10001",40.7487543,-73.989334,71,3.5,10001
FTze-KoZbdpwIIGzijkeMQ,Naive,"299 S 4th St, Brooklyn, NY 11211",40.70937,-73.95571,47,4.5,11211
9HuYLy_4hmQWkbKlKyWagQ,Machiavelli,"519 Columbus Ave, New York, NY 10024",40.785875,-73.972398,224,3.5,10024
q6ux26c-SfK-679y9lvVbw,Settepani,"196 Lenox Ave, Harlem, NY 10026",40.80435,-73.94766,171,3.5,10026
pL6cM2TPwvXqeGTrg7yN4Q,Remi,"145 W 53rd St, New York, NY 10019",40.76268,-73.98093,258,3.5,10019
c4fhzEx1za54hrbkhZL5HA,Bleecker Street Luncheonette,"270 Bleecker St, New York, NY 10014",40.73135,-74.00327,14,4.5,10014
KscSF2Bnwa_wlg1MbdFjvQ,Tre Sorelle,"61 Reade St, New York, NY 10007",40.7149022072554,-74.0064939111471,122,3.5,10007
wvn-FO-tY9_iWmA_OgMvEA,Frank's Trattoria,"371 1st Ave, New York, NY 10010",40.73612,-73.979473,103,3.5,10010
b_2l7KaQ0_cyVFCwzvXplw,Toscana,"201 16th St, Union City, NJ 07087",40.7609244,-74.0326598,20,5.0,07087
ycsULlWDvuj-jop3VESy4Q,Arte Restaurant,"21 E 9th St, New York, NY 10003",40.7325057983398,-73.9945526123047,82,3.5,10003
inI34xFWJoIGqw-NZwKitw,Maria's Restaurant,"3073 Emmons Ave, Brooklyn, NY 11235",40.58416,-73.93667,93,3.5,11235
piH-TNcmjLq2NHE4ZtbrBA,Zucchero E Pomodori,"1435 2nd Ave, New York, NY 10021",40.770632,-73.957562,156,3.5,10021
V0zC3awsklyxC0GFzmaTLg,Sfilatino Italian Gourmet,"342 W 57th St, New York, NY 10019",40.7675056,-73.9851073,154,4.0,10019
ugj4h67GK9hcvKgEIy5Tew,Pasta Flyer,"510 6th Ave, New York, NY 10011",40.73713,-73.99678,78,3.5,10011
4SdvTwFkW3Qx0f_3zBN_ZA,Bareli's,"219 Rte 3 E, Secaucus, NJ 07094",40.7912822,-74.0548778,109,4.5,07094
jzEaiiRa3497HWdf4QKHIA,La Pizza & La Pasta,"4 World Trade Ctr, Eataly, New York, NY 10006",40.7102419339859,-74.0124460392414,64,2.5,10006
4eunUQbqhwW70tfxQZLKfg,Giovannis Trattoria,"3800 Richmond Ave, Staten Island, NY 10312",40.545066,-74.165969,79,4.0,10312
22RnbE0EAPsv50XzJhtnyg,Giorgione,"307 Spring St, New York, NY 10013",40.72615,-74.008445,128,3.5,10013
9SsjlfVirSNyXw0g_h_tFQ,Mr Vino's Cucina,"7103 Austin St, Forest Hills, NY 11375",40.7200873,-73.8445468,85,4.0,11375
TsYrzVVtkKO4Asrk_L9stw,Parm,"235 Columbus Ave, New York, NY 10023",40.7765393353547,-73.9794614514109,391,3.5,10023
MfOl9uzuQj8Wl2g8NRYl0w,New Corner Restaurant,"7201 8th Ave, Brooklyn, NY 11228",40.62852,-74.01661,105,3.5,11228
kqewBLuQDB3euc-s_mRf4A,Otto Enoteca Pizzeria,"One Fifth Ave At 8th St, New York, NY 10003",40.7320605431463,-73.996197909787,1973,3.5,10003
AhqWTf8ObRg1ZcNRV_vzIQ,15 Fox Place,"15 Fox Pl, Jersey City, NJ 07306",40.73371,-74.07251,90,4.5,07306
7Oq1UdUHUGZGH_QI6N-0LQ,Hearth,"403 E 12th St, New York, NY 10009",40.7300466,-73.9832498,635,4.0,10009
pTWFuMYed409y99N0zY05Q,Barbaresco Restaurant,"843 Lexington Ave, New York, NY 10065",40.76539,-73.96556,74,3.5,10065
HJg9TbpyWvb6-AFPdb7NCA,King,"18 King St, New York, NY 10014",40.7275,-74.00346,95,3.5,10014
ZSDq6s2BFnvZEU4apxXbew,Di Palma Brothers Restaurant,"8728 Kennedy Blvd, North Bergen, NJ 07047",40.8090067,-74.0076072,81,4.0,07047
EYSIZX7b6Sp6TNc_KNvn7Q,Speedy Romeo,"63 Clinton St, New York, NY 10002",40.71951,-73.98514,203,4.0,10002
MyVbXtvst8X7sbR7gUA_ug,Cacio E Vino,"80 2nd Ave, New York, NY 10003",40.726384,-73.988873,286,3.5,10003
uDJw4dQiySoNCBoUalW1Ww,Lincoln Ristorante,"142 W 65th St, New York, NY 10023",40.773359006218,-73.9835011005249,480,4.0,10023
s9yeu2AneMTK4zRI96RzlQ,Margherita's Pizzeria,"740 Washington St, Hoboken, NJ 07030",40.74594,-74.02855,259,3.5,07030
Zgxqluk9HIZ0yKNTWMWpbA,Forcella,"485 Lorimer St, Brooklyn, NY 11211",40.711353,-73.9490983,392,3.5,11211
uzEhT55QIdk9YbfFwmlRzQ,Altesi Ristorante,"26 E 64th St, New York, NY 10065",40.76667,-73.96959,34,4.0,10065
8SI7b70Bqcw8n_kvBXMUag,Frankies 570 Spuntino,"570 Hudson St, New York, NY 10014",40.73569,-74.00581,296,3.5,10014
cUNFGQB2I3GI_vqy2OBW3Q,Lattanzi,"361 W 46th St, New York, NY 10036",40.7607901227454,-73.9901704731246,198,3.5,10036
ZgIs3x73_b29wiwPMIiOnQ,Panino Rustico of Mill Basin,"5801 Ave N, Brooklyn, NY 11234",40.61956,-73.91907,32,4.5,11234
-WEs8Trhq6nZPMyTzrAn9Q,Da Noi Downtown Staten Island,"138 Fingerboard Rd, Staten Island, NY 10305",40.6070167,-74.0667212,72,4.0,10305
e6pF5tzU3W2ufrWDZxVIeg,Claudio Pizzeria,"334 8th Ave, New York, NY 10001",40.7475857039896,-73.9967348479919,54,4.0,10001
EBLnoiBasjn_56UfTCnNsQ,Delizioso Ristorante Pizzeria,"4102 Avenue J, Brooklyn, NY 11210",40.6274,-73.93632,6,5.0,11210
oU8KphUV693RG-QnYIOzlA,Ravioli Fair,"Wall St, New York, NY 10005",40.7068349075833,-74.010277725373,1,5.0,10005
9GPRbrLHvPmLScQVw7L3KA,Donato's Italian Restaurant & Pizza,"50-22 39th Ave, Woodside, NY 11377",40.74858,-73.91298,118,3.0,11377
XlhWNQRGoWyybfXpGBgE3Q,Il Mulino New York - Uptown,"37 E 60th St, New York, NY 10021",40.764144,-73.970195,156,3.5,10021
dxoCLppcryrHuCt7UUbIVw,Italianissimo Restaurant,"107 McClean Ave, Staten Island, NY 10305",40.59856,-74.06565,39,4.0,10305
oaowryQAF13ka42VSb8c1w,Spolini's,"11625 Metropolitan Ave, Kew Gardens, NY 11418",40.7074477,-73.8354456,75,3.0,11418
d-5S-QRAB-jqsKBU4tqbsw,Alma Gourmet,"39-12 Crescent St, Long Island City, NY 11101",40.75453,-73.93732,7,4.0,11101
kpoFMjX8cIPeoWR1C-CV6A,La Sirena Ristorante,"88 9th Ave, New York, NY 10011",40.74244,-74.00387,290,3.5,10011
3FCxi2imtP_wMgsgsqIQOw,Bocca Di Bacco,"635 9th Ave, New York, NY 10036",40.7602649,-73.991703,199,3.5,10036
VF3wSCRC3mE6JpBQPQXELA,Parm,"248 Mulberry St, New York, NY 10012",40.72303,-73.99567,665,3.5,10012
nBy8KtcUHktPFKw-VClG1A,La Pecora Bianca,"950 2nd Ave, New York, NY 10022",40.75495,-73.9682718,53,3.5,10022
_xfW9vSlsqySASBWeUeFpQ,Molo Ristorante,"987 Bay St, Staten Island, NY 10305",40.61871,-74.06917,64,4.0,10305
dbCTJp9ENDVIquxBWONzWQ,Pomodoro,"518 9th Ave, New York, NY 10018",40.75624,-73.9939,101,4.0,10018
BpdlX1j1-FbOC1dWIrZv4w,Bella Blu,"967 Lexington Ave, New York, NY 10021",40.769207,-73.962791,191,3.5,10021
GnmQyaWFv3ZwVF7UYFWZDg,Casa Verde,"3471 Richmond Rd, Lighthouse Hill, NY 10306",40.5730024149327,-74.1365318135734,31,4.5,10306
ubNySbvyISy8q3oy9tsJaA,Il Pesce,"200 5th Ave, New York, NY 10010",40.7421891564824,-73.9898860988724,80,4.0,10010
Mi_Sanw4buXOutZrMxy4Fg,La Carbonara,"202 W 14th St, New York, NY 10011",40.7386324621605,-74.000301361084,393,3.5,10011
2ZbGLUZpaJO8mdxi7UaVMQ,Cara Mia,"654 9th Ave, New York, NY 10036",40.76069,-73.99066,380,3.5,10036
r6K5RBfhlNbr-g7g3u13KA,L'angolo,"696 Anderson Ave, Cliffside Park, NJ 07010",40.8283599182,-73.9863337576389,37,4.5,07010
vCqcAGPFRN0pA7vjjJYwzA,Mr. Panzerotto,"124 Macdougal St, New York, NY 10012",40.7299099,-74.00025,56,4.0,10012
K9kL1ice5jlkPXcNyTus3Q,Pasta Lovers,"142 W 49th St, New York, NY 10019",40.76003,-73.98291,224,3.5,10019
_eImQkZt0MlQ0jLZH2LrTQ,GP's Restaurant,"24 69th St, Guttenberg, NJ 07093",40.79126,-74.00167,102,4.5,07093
_AqeaDQnMaErG19LobuU8Q,Wheated,"905 Church Ave, Brooklyn, NY 11218",40.6465968960541,-73.9704950265688,272,4.5,11218
LJwkhP2vjRKKjyuRY1ql4Q,Lugo Cucina,"1 Penn Plz, New York, NY 10119",40.7514981327384,-73.9927658074097,248,3.5,10119
dvOvoJMIZmsCTEL1Dg0WXQ,Reggiano's,"7339 Amboy Rd, Staten Island, NY 10307",40.5111,-74.24204,136,4.5,10307
7gVN8BPaKz4vlmAnj8O0Aw,Abbondanza Trattoria & Brick Oven Pizza,"257 Grand St, Jersey City, NJ 07302",40.71599,-74.04551,211,3.5,07302
ZtApaQ9G-lyOfE-Y80tauw,Lea,"1022 Cortelyou Rd, Brooklyn, NY 11218",40.63943,-73.96801,269,3.5,11218
P6mNpH4eBPA-42Z0PFEqtQ,Regina's Grocery,"27 Orchard St, New York, NY 10002",40.7155,-73.99169,16,4.5,10002
06tnwnEQM2j9A6dC3HC_TQ,Capizzi,"547 9th Ave, New York, NY 10018",40.75744,-73.99357,665,4.5,10018
ETgJqJHV7BW6pIr9Ox74sA,Amélie,"22 W 8th St, New York, NY 10011",40.7327,-73.99766,1983,4.5,10011
vzDb6_Zkm4m8O7tNidojjA,Pier 76,"76 Bay St, Staten Island, NY 10301",40.640118,-74.0759269,147,4.0,10301
F-eRrDik2KK0sNjpGiNbAg,Trattoria il Gusto,"625 Columbus Ave, New York, NY 10024",40.78923,-73.9698499,14,3.5,10024
zxNvP9A5gqJWg_2xQ8s43w,Pizza Classica,"8989 Union Tpke, Glendale, NY 11385",40.7067119913359,-73.8555249478851,315,4.0,11385
0sR9gXJYvnSuEUaqiEmvRg,Nino's Restaurant,"1354 1st Ave, New York, NY 10021",40.768115,-73.955328,200,3.5,10021
AWeQkgJ0uzNr5YxFr2Bx8g,Pasquale Jones,"187 Mulberry St, New York, NY 10012",40.7210341671446,-73.9967492344452,151,3.5,10012
AO9ubB1XVqj1hkwOZm-F9A,Villaggio Ristorante,"15007 14th Rd, Whitestone, NY 11357",40.787697,-73.81308,121,3.5,11357
ECw0vk1IykU3QIX1okSXdA,Saluggi's East,"399 Grand St, New York, NY 10002",40.71601,-73.9875,55,4.0,10002
8uivlvzmeRXv6IitEkYPwg,Mario's,"1657 Richmond Rd, Staten Island, NY 10304",40.58966,-74.10155,74,4.0,10304
cRfAN-SRlFuaSd-mp-9iiQ,Restivo Ristorante,"209 7th Ave, New York, NY 10011",40.7434605855724,-73.9959991865082,98,3.5,10011
75s8ErSnvhVTFx1Z4PRGqw,Sicily's Best Pizzeria,"190 Cypress Ave, Brooklyn, NY 11237",40.70524,-73.91509,58,4.5,11237
xBtLIXu1YN9TnvlV4hTa1w,Tuscany Grill,"8620 3rd Ave, Brooklyn, NY 11209",40.62295,-74.03157,79,3.5,11209
cg-WHaj-g-3NHnRCOEJKpA,Notaro Ristorante,"635 2nd Ave, New York, NY 10016",40.74528,-73.97574,99,3.0,10016
JFi_v4-oRqJE81iIQzX8HA,Mamma Luciana's,"15-11 College Point Blvd, College Point, NY 11356",40.7836898,-73.8456487,48,4.0,11356
